{
  "stations": {
    "aillon-margeriaz": {
      "name": "Aillon-Margeriaz",
      "center": [
        45.642427,
        6.062558
      ],
      "zoom": 14,
      "shops": [
        {
          "id": "4391",
          "name": "Ekosport-Rent MARGERIAZ LOCATIONS",
          "lat": 45.642427,
          "lng": 6.062558,
          "website": "https://www.alpy.com/fr/location-ski/parameters/4391?referer=skiquality.com",
          "address": "Station Aillon-Margeriaz 1400 Immeuble Le Margeriaz"
        }
      ]
    },
    "albiez-montrond": {
      "name": "Albiez Montrond",
      "center": [
        45.20866,
        6.336301
      ],
      "zoom": 14,
      "shops": [
        {
          "id": "314",
          "name": "Aux Deux Frères",
          "lat": 45.20866,
          "lng": 6.336301,
          "website": "https://www.alpy.com/fr/location-ski/parameters/314?referer=skiquality.com",
          "address": "Les Vernataux - Le mollard"
        }
      ]
    },
    "alpe-dhuez": {
      "name": "Alpe d'Huez",
      "center": [
        45.092071,
        6.069955
      ],
      "zoom": 14,
      "shops": [
        {
          "id": "260",
          "name": "Centre Station",
          "lat": 45.093735,
          "lng": 6.067753,
          "website": "https://www.alpy.com/fr/location-ski/parameters/260?referer=skiquality.com",
          "address": "Route du Signal (Centre Station)"
        },
        {
          "id": "2204",
          "name": "Concept",
          "lat": 45.089916,
          "lng": 6.076174,
          "website": "https://www.alpy.com/fr/location-ski/parameters/2204?referer=skiquality.com",
          "address": "Centre commercial des Bergers"
        },
        {
          "id": "265",
          "name": "Cornerski",
          "lat": 45.095928,
          "lng": 6.06953,
          "website": "https://www.alpy.com/fr/location-ski/parameters/265?referer=skiquality.com",
          "address": "Place du Cognet - Immeuble le Caren"
        },
        {
          "id": "4691",
          "name": "Ekosport-rent Hors Piste",
          "lat": 45.095933,
          "lng": 6.069973,
          "website": "https://www.alpy.com/fr/location-ski/parameters/4691?referer=skiquality.com",
          "address": "22 Place Maurice Rajon"
        },
        {
          "id": "4320",
          "name": "Ekosport-rent Les Bergers",
          "lat": 45.090019,
          "lng": 6.07642,
          "website": "https://www.alpy.com/fr/location-ski/parameters/4320?referer=skiquality.com",
          "address": "Centre commercial des Berger, 38750 Huez"
        },
        {
          "id": "4633",
          "name": "Ekosport-rent Ze Shop 1",
          "lat": 45.090689,
          "lng": 6.064571,
          "website": "https://www.alpy.com/fr/location-ski/parameters/4633?referer=skiquality.com",
          "address": "Place Joseph Paganon"
        },
        {
          "id": "266",
          "name": "Jeannot Sports",
          "lat": 45.096218,
          "lng": 6.070747,
          "website": "https://www.alpy.com/fr/location-ski/parameters/266?referer=skiquality.com",
          "address": "Chalet les Cabris - 7, rue de Fontbelle"
        },
        {
          "id": "1550",
          "name": "L'Eclose",
          "lat": 45.087688,
          "lng": 6.06825,
          "website": "https://www.alpy.com/fr/location-ski/parameters/1550?referer=skiquality.com",
          "address": "Résidence les 4 Soleils, Rue du 93e R.A.M."
        },
        {
          "id": "261",
          "name": "Ours Blanc",
          "lat": 45.090641,
          "lng": 6.067699,
          "website": "https://www.alpy.com/fr/location-ski/parameters/261?referer=skiquality.com",
          "address": "Galerie de l'Ours Blanc"
        },
        {
          "id": "4876",
          "name": "Precision Ski Ski Dream",
          "lat": 45.09639,
          "lng": 6.06949,
          "website": "https://www.alpy.com/fr/location-ski/parameters/4876?referer=skiquality.com",
          "address": "69 rue du Pic Blanc"
        },
        {
          "id": "262",
          "name": "Premium Sport",
          "lat": 45.090897,
          "lng": 6.063416,
          "website": "https://www.alpy.com/fr/location-ski/parameters/262?referer=skiquality.com",
          "address": "1153 Route d'Huez (Vieil Alpe)"
        },
        {
          "id": "267",
          "name": "Rocky Sports (L'éclose)",
          "lat": 45.087925,
          "lng": 6.067693,
          "website": "https://www.alpy.com/fr/location-ski/parameters/267?referer=skiquality.com",
          "address": "L'Eclose -  524 rue du 93ème RAM"
        },
        {
          "id": "2310",
          "name": "Ski Rep Rond Point des Pistes Richard 3 Sports",
          "lat": 45.096802,
          "lng": 6.0697,
          "website": "https://www.alpy.com/fr/location-ski/parameters/2310?referer=skiquality.com",
          "address": "Rond Point des Pistes - 105 rue du Pic Blanc"
        },
        {
          "id": "3970",
          "name": "Ski Republic Les Bergers Nevada Sports",
          "lat": 45.089664,
          "lng": 6.07668,
          "website": "https://www.alpy.com/fr/location-ski/parameters/3970?referer=skiquality.com",
          "address": "Centre commercial les Bergers"
        },
        {
          "id": "263",
          "name": "Sport 2000 Les Bergers (Olivier Sports)",
          "lat": 45.089996,
          "lng": 6.076608,
          "website": "https://www.alpy.com/fr/location-ski/parameters/263?referer=skiquality.com",
          "address": "Centre Commercial des Bergers - Situé aux pieds des pistes et résidences"
        },
        {
          "id": "264",
          "name": "Ze Shop 2",
          "lat": 45.090691,
          "lng": 6.064571,
          "website": "https://www.alpy.com/fr/location-ski/parameters/264?referer=skiquality.com",
          "address": "Place Joseph Paganon- Vieil Alpe"
        }
      ]
    },
    "areches-beaufort": {
      "name": "Arêches-Beaufort",
      "center": [
        45.686714,
        6.56872
      ],
      "zoom": 14,
      "shops": [
        {
          "id": "315",
          "name": "Avocat Sport",
          "lat": 45.686714,
          "lng": 6.56872,
          "website": "https://www.alpy.com/fr/location-ski/parameters/315?referer=skiquality.com",
          "address": "404 rue Léontine Vibert  ARECHES"
        }
      ]
    },
    "argentiere": {
      "name": "Argentière",
      "center": [
        45.980988,
        6.925308
      ],
      "zoom": 14,
      "shops": [
        {
          "id": "1228",
          "name": "Stamos Sports",
          "lat": 45.980988,
          "lng": 6.925308,
          "website": "https://www.alpy.com/fr/location-ski/parameters/1228?referer=skiquality.com",
          "address": "Centre Commercial Grand Roc"
        }
      ]
    },
    "auris-en-oisans": {
      "name": "Auris-en-Oisans",
      "center": [
        45.056141,
        6.078209
      ],
      "zoom": 14,
      "shops": [
        {
          "id": "4308",
          "name": "Ekosport-rent Auris Ski",
          "lat": 45.056141,
          "lng": 6.078209,
          "website": "https://www.alpy.com/fr/location-ski/parameters/4308?referer=skiquality.com",
          "address": "Résidence Odalys - Zac des Orgières, Les Orgières"
        }
      ]
    },
    "auron": {
      "name": "Auron",
      "center": [
        44.22556,
        6.931408
      ],
      "zoom": 14,
      "shops": [
        {
          "id": "1871",
          "name": "Adventmount",
          "lat": 44.225258,
          "lng": 6.931409,
          "website": "https://www.alpy.com/fr/location-ski/parameters/1871?referer=skiquality.com",
          "address": "Place du centre - Auron"
        },
        {
          "id": "1872",
          "name": "Flow Sport",
          "lat": 44.22683,
          "lng": 6.929572,
          "website": "https://www.alpy.com/fr/location-ski/parameters/1872?referer=skiquality.com",
          "address": "Boulevard Georges Pompidou - Centre Station"
        },
        {
          "id": "2209",
          "name": "Georges Sport",
          "lat": 44.225307,
          "lng": 6.931786,
          "website": "https://www.alpy.com/fr/location-ski/parameters/2209?referer=skiquality.com",
          "address": "Place centrale"
        },
        {
          "id": "3857",
          "name": "Ski Republic Centre Station White Spirit",
          "lat": 44.224846,
          "lng": 6.932863,
          "website": "https://www.alpy.com/fr/location-ski/parameters/3857?referer=skiquality.com",
          "address": "Immeuble l'Annapurna Boulevard Georges Pompidou - Place d'Auron"
        }
      ]
    },
    "aussois": {
      "name": "Aussois",
      "center": [
        45.230091,
        6.7411
      ],
      "zoom": 14,
      "shops": [
        {
          "id": "316",
          "name": "Aussois Sports",
          "lat": 45.230091,
          "lng": 6.7411,
          "website": "https://www.alpy.com/fr/location-ski/parameters/316?referer=skiquality.com",
          "address": "20 Bis Rue En Haut"
        }
      ]
    },
    "avoriaz": {
      "name": "Avoriaz",
      "center": [
        46.191722,
        6.776337
      ],
      "zoom": 14,
      "shops": [
        {
          "id": "3571",
          "name": "360 Skishop",
          "lat": 46.19231,
          "lng": 6.7751,
          "website": "https://www.alpy.com/fr/location-ski/parameters/3571?referer=skiquality.com",
          "address": "33 promenade du Festival"
        },
        {
          "id": "3308",
          "name": "7 Place Centrale",
          "lat": 46.191457,
          "lng": 6.777041,
          "website": "https://www.alpy.com/fr/location-ski/parameters/3308?referer=skiquality.com",
          "address": "7, place Centrale"
        },
        {
          "id": "2541",
          "name": "Crozats Sports",
          "lat": 46.19245,
          "lng": 6.77615,
          "website": "https://www.alpy.com/fr/location-ski/parameters/2541?referer=skiquality.com",
          "address": "135 Quartier des crozats - BELAMBRA - Les Alpages"
        },
        {
          "id": "4811",
          "name": "Ekosport-Rent Antoine Ski",
          "lat": 46.19179,
          "lng": 6.776506,
          "website": "https://www.alpy.com/fr/location-ski/parameters/4811?referer=skiquality.com",
          "address": "139 Promenade du Festival"
        },
        {
          "id": "3574",
          "name": "Le 720",
          "lat": 46.191,
          "lng": 6.77691,
          "website": "https://www.alpy.com/fr/location-ski/parameters/3574?referer=skiquality.com",
          "address": "55, place Centrale"
        },
        {
          "id": "1483",
          "name": "Les Fontaines Blanches",
          "lat": 46.192184,
          "lng": 6.775603,
          "website": "https://www.alpy.com/fr/location-ski/parameters/1483?referer=skiquality.com",
          "address": "7, Promenade du Festival"
        },
        {
          "id": "2305",
          "name": "Ski Republic Centre Station Pelen Sport",
          "lat": 46.190861,
          "lng": 6.77705,
          "website": "https://www.alpy.com/fr/location-ski/parameters/2305?referer=skiquality.com",
          "address": "Immeuble les Portes du Soleil"
        }
      ]
    },
    "bernex": {
      "name": "Bernex",
      "center": [
        46.356995,
        6.689366
      ],
      "zoom": 14,
      "shops": [
        {
          "id": "191",
          "name": "Super Bernex Sport",
          "lat": 46.356995,
          "lng": 6.689366,
          "website": "https://www.alpy.com/fr/location-ski/parameters/191?referer=skiquality.com",
          "address": "1155 route du télésiège"
        }
      ]
    },
    "bessans": {
      "name": "Bessans",
      "center": [
        45.322346,
        6.998825
      ],
      "zoom": 14,
      "shops": [
        {
          "id": "317",
          "name": "Tracq Sports",
          "lat": 45.322346,
          "lng": 6.998825,
          "website": "https://www.alpy.com/fr/location-ski/parameters/317?referer=skiquality.com",
          "address": "Rue Saint Etienne"
        }
      ]
    },
    "brides-les-bains": {
      "name": "Brides-les-Bains",
      "center": [
        45.452292,
        6.565508
      ],
      "zoom": 14,
      "shops": [
        {
          "id": "4259",
          "name": "Centre Station",
          "lat": 45.452259,
          "lng": 6.56727,
          "website": "https://www.alpy.com/fr/location-ski/parameters/4259?referer=skiquality.com",
          "address": "rue Emile Machet"
        },
        {
          "id": "1932",
          "name": "Happy Mountains",
          "lat": 45.452744,
          "lng": 6.565202,
          "website": "https://www.alpy.com/fr/location-ski/parameters/1932?referer=skiquality.com",
          "address": "39 Rue Aristide Briand"
        },
        {
          "id": "2169",
          "name": "Precision Ski Brides les Bains",
          "lat": 45.452339,
          "lng": 6.56691,
          "website": "https://www.alpy.com/fr/location-ski/parameters/2169?referer=skiquality.com",
          "address": "Rue Emile Machet"
        },
        {
          "id": "1526",
          "name": "Résidence les Cybèles",
          "lat": 45.453568,
          "lng": 6.562378,
          "website": "https://www.alpy.com/fr/location-ski/parameters/1526?referer=skiquality.com",
          "address": "Résidence Cybèle"
        },
        {
          "id": "4258",
          "name": "Télécabine de l'Olympe",
          "lat": 45.45055,
          "lng": 6.56578,
          "website": "https://www.alpy.com/fr/location-ski/parameters/4258?referer=skiquality.com",
          "address": "Route de l'Olympe"
        }
      ]
    },
    "champagny-en-vanoise": {
      "name": "Champagny-en-Vanoise",
      "center": [
        45.455883,
        6.694217
      ],
      "zoom": 14,
      "shops": [
        {
          "id": "4042",
          "name": "Alpina Ski Shop",
          "lat": 45.456642,
          "lng": 6.693892,
          "website": "https://www.alpy.com/fr/location-ski/parameters/4042?referer=skiquality.com",
          "address": "Batiment Club Alpina - Rue des Hauts du Crey"
        },
        {
          "id": "322",
          "name": "Belvédère Sports",
          "lat": 45.455296,
          "lng": 6.694888,
          "website": "https://www.alpy.com/fr/location-ski/parameters/322?referer=skiquality.com",
          "address": "Le Crey"
        },
        {
          "id": "4719",
          "name": "Wocan Delivery - Champagny en Vanoise",
          "lat": 45.45571,
          "lng": 6.69387,
          "website": "https://www.alpy.com/fr/location-ski/parameters/4719?referer=skiquality.com",
          "address": "Hotel-Shop-Shuttle-Service"
        }
      ]
    },
    "chamrousse": {
      "name": "Chamrousse",
      "center": [
        45.109123,
        5.875978
      ],
      "zoom": 14,
      "shops": [
        {
          "id": "3832",
          "name": "Ski Republic Centre Station Le Camp de Base",
          "lat": 45.109123,
          "lng": 5.875978,
          "website": "https://www.alpy.com/fr/location-ski/parameters/3832?referer=skiquality.com",
          "address": "480 Avenue du père Tasse, Roche Béranger"
        }
      ]
    },
    "chatel": {
      "name": "Châtel",
      "center": [
        46.264589,
        6.835878
      ],
      "zoom": 14,
      "shops": [
        {
          "id": "2464",
          "name": "Daniel Cruz Sports",
          "lat": 46.262623,
          "lng": 6.839455,
          "website": "https://www.alpy.com/fr/location-ski/parameters/2464?referer=skiquality.com",
          "address": "234, chemin de l'Etringa"
        },
        {
          "id": "197",
          "name": "Germain Sports (Centre Station)",
          "lat": 46.267208,
          "lng": 6.841962,
          "website": "https://www.alpy.com/fr/location-ski/parameters/197?referer=skiquality.com",
          "address": "19 Chemin sous le Crêt - Centre station (derrière la \"Boulangerie GRILLET\")"
        },
        {
          "id": "198",
          "name": "Germain Sports (Linga)",
          "lat": 46.255932,
          "lng": 6.823463,
          "website": "https://www.alpy.com/fr/location-ski/parameters/198?referer=skiquality.com",
          "address": "184 Route de Pré-le-Joux - Le Linga - à côté du restaurant \"La Ripaille\""
        },
        {
          "id": "4074",
          "name": "Ski Republic Centre Station l'Atelier du Ski",
          "lat": 46.272591,
          "lng": 6.83863,
          "website": "https://www.alpy.com/fr/location-ski/parameters/4074?referer=skiquality.com",
          "address": "608 Route de Thonon"
        }
      ]
    },
    "combloux": {
      "name": "Combloux",
      "center": [
        45.892246,
        6.62494
      ],
      "zoom": 14,
      "shops": [
        {
          "id": "199",
          "name": "Marin Sports les Pistes",
          "lat": 45.892246,
          "lng": 6.62494,
          "website": "https://www.alpy.com/fr/location-ski/parameters/199?referer=skiquality.com",
          "address": "2804 route de la cry cuchet - Pied des Pistes"
        }
      ]
    },
    "flaine": {
      "name": "Flaine",
      "center": [
        46.006846,
        6.686799
      ],
      "zoom": 14,
      "shops": [
        {
          "id": "201",
          "name": "Flaine Super Ski (Forêt)",
          "lat": 46.007286,
          "lng": 6.690632,
          "website": "https://www.alpy.com/fr/location-ski/parameters/201?referer=skiquality.com",
          "address": "Galerie Marchande - Flaine Forêt"
        },
        {
          "id": "202",
          "name": "Flaine Super Ski (Forum)",
          "lat": 46.004704,
          "lng": 6.695461,
          "website": "https://www.alpy.com/fr/location-ski/parameters/202?referer=skiquality.com",
          "address": "Immeuble Aldebaran"
        },
        {
          "id": "1867",
          "name": "Ski Shop",
          "lat": 46.008549,
          "lng": 6.674303,
          "website": "https://www.alpy.com/fr/location-ski/parameters/1867?referer=skiquality.com",
          "address": "Résidence Les Portes du Grand Massif"
        }
      ]
    },
    "font-romeu": {
      "name": "Font Romeu",
      "center": [
        42.502652,
        2.033748
      ],
      "zoom": 14,
      "shops": [
        {
          "id": "5031",
          "name": "Ekosport-Rent Le Local",
          "lat": 42.504476,
          "lng": 2.039822,
          "website": "https://www.alpy.com/fr/location-ski/parameters/5031?referer=skiquality.com",
          "address": "23 avenue Emmanuel Brousse"
        },
        {
          "id": "4667",
          "name": "Ski Republic Ecobike Sport Shop",
          "lat": 42.504181,
          "lng": 2.043387,
          "website": "https://www.alpy.com/fr/location-ski/parameters/4667?referer=skiquality.com",
          "address": "Villa St Paul, 7 rue Calvet 66210 Font-Romeu"
        },
        {
          "id": "309",
          "name": "Sports Mountains",
          "lat": 42.503944,
          "lng": 2.03886,
          "website": "https://www.alpy.com/fr/location-ski/parameters/309?referer=skiquality.com",
          "address": "2 Avenue Emmanuel Brousse"
        },
        {
          "id": "307",
          "name": "Sylbe Sports",
          "lat": 42.498009,
          "lng": 2.012921,
          "website": "https://www.alpy.com/fr/location-ski/parameters/307?referer=skiquality.com",
          "address": "Rond Point d'Egat - CC Super U - RN10"
        }
      ]
    },
    "isola2000": {
      "name": "Isola2000",
      "center": [
        44.184871,
        7.159823
      ],
      "zoom": 14,
      "shops": [
        {
          "id": "4802",
          "name": "Ekosport-Rent Ski Service",
          "lat": 44.184614,
          "lng": 7.1606,
          "website": "https://www.alpy.com/fr/location-ski/parameters/4802?referer=skiquality.com",
          "address": "Le Tavels Front de Neige, Galerie Marchande"
        },
        {
          "id": "179",
          "name": "Quartz Sport",
          "lat": 44.184753,
          "lng": 7.159667,
          "website": "https://www.alpy.com/fr/location-ski/parameters/179?referer=skiquality.com",
          "address": "Le Saint Pierre  Galerie Marchande"
        },
        {
          "id": "2319",
          "name": "Ski Republic Le Chastillon Magic Snow",
          "lat": 44.185505,
          "lng": 7.158427,
          "website": "https://www.alpy.com/fr/location-ski/parameters/2319?referer=skiquality.com",
          "address": "Immeuble la Lombarde"
        },
        {
          "id": "2375",
          "name": "Snow Shop",
          "lat": 44.184612,
          "lng": 7.1606,
          "website": "https://www.alpy.com/fr/location-ski/parameters/2375?referer=skiquality.com",
          "address": "Front de neige - Immeuble Tavels"
        }
      ]
    },
    "la-chapelle-dabondance": {
      "name": "La Chapelle-d'Abondance",
      "center": [
        46.296131,
        6.786538
      ],
      "zoom": 14,
      "shops": [
        {
          "id": "2320",
          "name": "Ski Republic Centre Village Les Rappes Sports",
          "lat": 46.296131,
          "lng": 6.786538,
          "website": "https://www.alpy.com/fr/location-ski/parameters/2320?referer=skiquality.com",
          "address": "130 Route de Chevenne"
        }
      ]
    },
    "la-clusaz": {
      "name": "La Clusaz",
      "center": [
        45.905421,
        6.426665
      ],
      "zoom": 14,
      "shops": [
        {
          "id": "4750",
          "name": "Alpine ride",
          "lat": 45.9061,
          "lng": 6.42964,
          "website": "https://www.alpy.com/fr/location-ski/parameters/4750?referer=skiquality.com",
          "address": "461 Route du Col des Aravis"
        },
        {
          "id": "3726",
          "name": "Au Sportif",
          "lat": 45.905121,
          "lng": 6.424693,
          "website": "https://www.alpy.com/fr/location-ski/parameters/3726?referer=skiquality.com",
          "address": "47, route du col des Aravis"
        },
        {
          "id": "4809",
          "name": "Ekosport-Rent Versant Est",
          "lat": 45.905038,
          "lng": 6.42499,
          "website": "https://www.alpy.com/fr/location-ski/parameters/4809?referer=skiquality.com",
          "address": "24 place du Petit Casino"
        },
        {
          "id": "3086",
          "name": "Passion Glisse",
          "lat": 45.904655,
          "lng": 6.424393,
          "website": "https://www.alpy.com/fr/location-ski/parameters/3086?referer=skiquality.com",
          "address": "6 Place Yves Pollet Villard - Résidence du centre"
        },
        {
          "id": "4877",
          "name": "Ski Republic Araviski",
          "lat": 45.90619,
          "lng": 6.42961,
          "website": "https://www.alpy.com/fr/location-ski/parameters/4877?referer=skiquality.com",
          "address": "30 place de la Perrière"
        }
      ]
    },
    "la-joue-du-loup": {
      "name": "La Joue du Loup",
      "center": [
        44.687748,
        5.892721
      ],
      "zoom": 14,
      "shops": [
        {
          "id": "2322",
          "name": "Ski Republic Centre Station V8 Shop",
          "lat": 44.687748,
          "lng": 5.892721,
          "website": "https://www.alpy.com/fr/location-ski/parameters/2322?referer=skiquality.com",
          "address": "La Joue du Loup"
        }
      ]
    },
    "la-norma": {
      "name": "La Norma",
      "center": [
        45.201309,
        6.69669
      ],
      "zoom": 14,
      "shops": [
        {
          "id": "4315",
          "name": "Ekosport-rent La Cabane a Ski",
          "lat": 45.201309,
          "lng": 6.69669,
          "website": "https://www.alpy.com/fr/location-ski/parameters/4315?referer=skiquality.com",
          "address": "Bâtiment  la Norma Le Village 73500 Villarodin-Bourget"
        }
      ]
    },
    "la-plagne-montalbert": {
      "name": "La Plagne Montalbert",
      "center": [
        45.534817,
        6.636473
      ],
      "zoom": 14,
      "shops": [
        {
          "id": "1257",
          "name": "Sport Passion 73",
          "lat": 45.534573,
          "lng": 6.635716,
          "website": "https://www.alpy.com/fr/location-ski/parameters/1257?referer=skiquality.com",
          "address": "Immeuble Genepy Montalbert"
        },
        {
          "id": "4703",
          "name": "Wocan Delivery - Montalbert",
          "lat": 45.53506,
          "lng": 6.63723,
          "website": "https://www.alpy.com/fr/location-ski/parameters/4703?referer=skiquality.com",
          "address": "Hotel-Shop-Shuttle-Service"
        }
      ]
    },
    "la-rosiere": {
      "name": "La Rosière",
      "center": [
        45.626157,
        6.857793
      ],
      "zoom": 14,
      "shops": [
        {
          "id": "4023",
          "name": "Alpen Ski Shop",
          "lat": 45.625465,
          "lng": 6.862761,
          "website": "https://www.alpy.com/fr/location-ski/parameters/4023?referer=skiquality.com",
          "address": "Les Eucherts - Résidence Alpen Lodge"
        },
        {
          "id": "338",
          "name": "Arpin Sport",
          "lat": 45.627254,
          "lng": 6.849843,
          "website": "https://www.alpy.com/fr/location-ski/parameters/338?referer=skiquality.com",
          "address": "Centre station La Rosière"
        },
        {
          "id": "4307",
          "name": "Ekosport-rent Sport Service",
          "lat": 45.625542,
          "lng": 6.863979,
          "website": "https://www.alpy.com/fr/location-ski/parameters/4307?referer=skiquality.com",
          "address": "Les Eucherts"
        },
        {
          "id": "339",
          "name": "L'Appart",
          "lat": 45.626759,
          "lng": 6.850628,
          "website": "https://www.alpy.com/fr/location-ski/parameters/339?referer=skiquality.com",
          "address": "Centre station La Rosière"
        },
        {
          "id": "4115",
          "name": "Les Cimes Blanches",
          "lat": 45.625961,
          "lng": 6.860297,
          "website": "https://www.alpy.com/fr/location-ski/parameters/4115?referer=skiquality.com",
          "address": "Résidence Les Cimes Blanches"
        },
        {
          "id": "2183",
          "name": "Precision ski La Rosière - Centre",
          "lat": 45.626858,
          "lng": 6.849916,
          "website": "https://www.alpy.com/fr/location-ski/parameters/2183?referer=skiquality.com",
          "address": "Résidences Les Vertes Années 73700 La Rosière Montvalezan"
        },
        {
          "id": "4206",
          "name": "Precision Ski Les Eucherts - Alparena Ski Shop",
          "lat": 45.625832,
          "lng": 6.862402,
          "website": "https://www.alpy.com/fr/location-ski/parameters/4206?referer=skiquality.com",
          "address": "Quartier de l'Averne, Les Eucherts"
        },
        {
          "id": "2231",
          "name": "Precision Ski Les Eucherts - Surf Ski Shop",
          "lat": 45.625587,
          "lng": 6.862517,
          "website": "https://www.alpy.com/fr/location-ski/parameters/2231?referer=skiquality.com",
          "address": "Résidence les Balcons de la Rosière, Centre des Eucherts"
        }
      ]
    },
    "la-tania": {
      "name": "La Tania",
      "center": [
        45.431518,
        6.59571
      ],
      "zoom": 14,
      "shops": [
        {
          "id": "4344",
          "name": "Ekosport-rent Ski Higher La Tania",
          "lat": 45.431374,
          "lng": 6.595878,
          "website": "https://www.alpy.com/fr/location-ski/parameters/4344?referer=skiquality.com",
          "address": "Immeuble le Grand Bois"
        },
        {
          "id": "1415",
          "name": "Les Folyères La Tania",
          "lat": 45.431805,
          "lng": 6.595375,
          "website": "https://www.alpy.com/fr/location-ski/parameters/1415?referer=skiquality.com",
          "address": "Centre station/Rés. Les Folyères"
        },
        {
          "id": "4291",
          "name": "Ski Higher La Tania",
          "lat": 45.431374,
          "lng": 6.595878,
          "website": "https://www.alpy.com/fr/location-ski/parameters/4291?referer=skiquality.com",
          "address": "Immeuble le Grand Bois"
        }
      ]
    },
    "la-toussuire": {
      "name": "La Toussuire",
      "center": [
        45.25684,
        6.258363
      ],
      "zoom": 14,
      "shops": [
        {
          "id": "4327",
          "name": "Ekosport-rent Le Floral",
          "lat": 45.25684,
          "lng": 6.258363,
          "website": "https://www.alpy.com/fr/location-ski/parameters/4327?referer=skiquality.com",
          "address": "Chalet Le Floral"
        }
      ]
    },
    "le-corbier": {
      "name": "Le Corbier",
      "center": [
        45.23932,
        6.270356
      ],
      "zoom": 14,
      "shops": [
        {
          "id": "2388",
          "name": "Apollo",
          "lat": 45.240597,
          "lng": 6.268206,
          "website": "https://www.alpy.com/fr/location-ski/parameters/2388?referer=skiquality.com",
          "address": "Immeuble Apollo - Centre station - Front de neige"
        },
        {
          "id": "348",
          "name": "Ariane",
          "lat": 45.240166,
          "lng": 6.268644,
          "website": "https://www.alpy.com/fr/location-ski/parameters/348?referer=skiquality.com",
          "address": "Immeuble Ariane"
        },
        {
          "id": "2098",
          "name": "La Poudreuse Corbier",
          "lat": 45.239021,
          "lng": 6.271792,
          "website": "https://www.alpy.com/fr/location-ski/parameters/2098?referer=skiquality.com",
          "address": "Immeuble le Pégase Phénix"
        },
        {
          "id": "2233",
          "name": "Ski Republic Front De Neige BC Sports",
          "lat": 45.239986,
          "lng": 6.269229,
          "website": "https://www.alpy.com/fr/location-ski/parameters/2233?referer=skiquality.com",
          "address": "Immeuble Charvin, Galerie de la Piscine"
        },
        {
          "id": "2190",
          "name": "Ski Republic Les Alpages",
          "lat": 45.236832,
          "lng": 6.27391,
          "website": "https://www.alpy.com/fr/location-ski/parameters/2190?referer=skiquality.com",
          "address": "Résidence Odalys les Alpages du Corbier-Lieu-dit Au Saut Villarembert"
        }
      ]
    },
    "le-devoluy": {
      "name": "Super Devoluy",
      "center": [
        44.677138,
        5.926949
      ],
      "zoom": 14,
      "shops": [
        {
          "id": "1223",
          "name": "Altiski (Aurouze)",
          "lat": 44.675934,
          "lng": 5.927904,
          "website": "https://www.alpy.com/fr/location-ski/parameters/1223?referer=skiquality.com",
          "address": "Batiment du Bois d'Aurouze"
        },
        {
          "id": "255",
          "name": "Altiski (Issarts)",
          "lat": 44.677639,
          "lng": 5.926261,
          "website": "https://www.alpy.com/fr/location-ski/parameters/255?referer=skiquality.com",
          "address": "Rond point des Issarts"
        },
        {
          "id": "2390",
          "name": "Ski Republic Front De Neige All Ski Rent",
          "lat": 44.677841,
          "lng": 5.926683,
          "website": "https://www.alpy.com/fr/location-ski/parameters/2390?referer=skiquality.com",
          "address": "Residence du Bois d'aurouze, Station de Super Dévoluy"
        }
      ]
    },
    "le-grand-bornand": {
      "name": "Le Grand-Bornand",
      "center": [
        45.953227,
        6.442172
      ],
      "zoom": 14,
      "shops": [
        {
          "id": "1873",
          "name": "Antonin Sports",
          "lat": 45.94297,
          "lng": 6.429235,
          "website": "https://www.alpy.com/fr/location-ski/parameters/1873?referer=skiquality.com",
          "address": "89 Route de la Vallée du Bouchet (Route du télécabine)"
        },
        {
          "id": "2324",
          "name": "Ski Republic Parking des Télécabines Sport Alp",
          "lat": 45.941776,
          "lng": 6.439629,
          "website": "https://www.alpy.com/fr/location-ski/parameters/2324?referer=skiquality.com",
          "address": "17 Chemin de Suize, Route du Bouchet"
        },
        {
          "id": "1233",
          "name": "Ski Shop",
          "lat": 45.974934,
          "lng": 6.457652,
          "website": "https://www.alpy.com/fr/location-ski/parameters/1233?referer=skiquality.com",
          "address": "7241, Route du Chinaillon"
        }
      ]
    },
    "les-2-alpes": {
      "name": "Les 2 Alpes",
      "center": [
        45.012722,
        6.124961
      ],
      "zoom": 14,
      "shops": [
        {
          "id": "4806",
          "name": "Chalvin Sports",
          "lat": 45.014945,
          "lng": 6.124553,
          "website": "https://www.alpy.com/fr/location-ski/parameters/4806?referer=skiquality.com",
          "address": "34 avenue de la Muzelle"
        },
        {
          "id": "4313",
          "name": "Ekosport-rent Camp d'Base",
          "lat": 45.005219,
          "lng": 6.12428,
          "website": "https://www.alpy.com/fr/location-ski/parameters/4313?referer=skiquality.com",
          "address": "7 Rue des Vikings"
        },
        {
          "id": "4343",
          "name": "Ekosport-rent Gravier Sports",
          "lat": 45.019802,
          "lng": 6.123421,
          "website": "https://www.alpy.com/fr/location-ski/parameters/4343?referer=skiquality.com",
          "address": "7, Avenue de la Muzelle"
        },
        {
          "id": "4314",
          "name": "Ekosport-rent L'Atelier",
          "lat": 45.018429,
          "lng": 6.130221,
          "website": "https://www.alpy.com/fr/location-ski/parameters/4314?referer=skiquality.com",
          "address": "Grande place - BP 31"
        },
        {
          "id": "4317",
          "name": "Ekosport-rent La Skirie 2",
          "lat": 45.01247,
          "lng": 6.12499,
          "website": "https://www.alpy.com/fr/location-ski/parameters/4317?referer=skiquality.com",
          "address": "70 avenue de la Muzelle"
        },
        {
          "id": "4022",
          "name": "Ekosport-Rent Les 2 Skis",
          "lat": 45.015202,
          "lng": 6.124939,
          "website": "https://www.alpy.com/fr/location-ski/parameters/4022?referer=skiquality.com",
          "address": "34 Avenue de la Muzelle - Résidence Neige Soleil - Entrée station"
        },
        {
          "id": "1870",
          "name": "Fl Sport les Deux Alpes",
          "lat": 45.017689,
          "lng": 6.130067,
          "website": "https://www.alpy.com/fr/location-ski/parameters/1870?referer=skiquality.com",
          "address": "Hameau de la  Meije -  Le  Village1800"
        },
        {
          "id": "4292",
          "name": "Gravier Sports",
          "lat": 45.019802,
          "lng": 6.123421,
          "website": "https://www.alpy.com/fr/location-ski/parameters/4292?referer=skiquality.com",
          "address": "7, Avenue de la Muzelle"
        },
        {
          "id": "279",
          "name": "Jacques Sports",
          "lat": 45.005718,
          "lng": 6.124693,
          "website": "https://www.alpy.com/fr/location-ski/parameters/279?referer=skiquality.com",
          "address": "11 Rue des Vikings - Immeuble 3300"
        },
        {
          "id": "281",
          "name": "La Skirie",
          "lat": 45.012497,
          "lng": 6.125024,
          "website": "https://www.alpy.com/fr/location-ski/parameters/281?referer=skiquality.com",
          "address": "70 Avenue de la Muzelle - L'Eperon"
        },
        {
          "id": "4350",
          "name": "Milou Sports",
          "lat": 45.004818,
          "lng": 6.12235,
          "website": "https://www.alpy.com/fr/location-ski/parameters/4350?referer=skiquality.com",
          "address": "126, avenue de la Muzelle"
        },
        {
          "id": "2306",
          "name": "Ski Republic Hors Limites",
          "lat": 45.006073,
          "lng": 6.121573,
          "website": "https://www.alpy.com/fr/location-ski/parameters/2306?referer=skiquality.com",
          "address": "1 rue du Cairou"
        }
      ]
    },
    "les-7-laux": {
      "name": "Les 7 Laux",
      "center": [
        45.256653,
        5.994876
      ],
      "zoom": 14,
      "shops": [
        {
          "id": "4311",
          "name": "Ekosport-rent Locaski",
          "lat": 45.25666,
          "lng": 5.99489,
          "website": "https://www.alpy.com/fr/location-ski/parameters/4311?referer=skiquality.com",
          "address": "Immeuble L'Agnelin Lieu-dit, 38190 Les Adrets"
        },
        {
          "id": "276",
          "name": "Technisport",
          "lat": 45.256645,
          "lng": 5.994861,
          "website": "https://www.alpy.com/fr/location-ski/parameters/276?referer=skiquality.com",
          "address": "Les Adrets"
        }
      ]
    },
    "les-arcs": {
      "name": "Les Arcs",
      "center": [
        45.576794,
        6.803959
      ],
      "zoom": 14,
      "shops": [
        {
          "id": "3556",
          "name": "Christina Sports",
          "lat": 45.595539,
          "lng": 6.792722,
          "website": "https://www.alpy.com/fr/location-ski/parameters/3556?referer=skiquality.com",
          "address": "12 Place du soleil - Funiculaire Arc-en-ciel"
        },
        {
          "id": "2193",
          "name": "Precision Ski Roc Belle Face",
          "lat": 45.596775,
          "lng": 6.794003,
          "website": "https://www.alpy.com/fr/location-ski/parameters/2193?referer=skiquality.com",
          "address": "Résidence Les 3 Arcs"
        },
        {
          "id": "4729",
          "name": "Wocan Delivery - Arc 1600",
          "lat": 45.5954,
          "lng": 6.79196,
          "website": "https://www.alpy.com/fr/location-ski/parameters/4729?referer=skiquality.com",
          "address": "Hotel-Shop-Shuttle-Service"
        },
        {
          "id": "2130",
          "name": "Arcadia",
          "lat": 45.575581,
          "lng": 6.780035,
          "website": "https://www.alpy.com/fr/location-ski/parameters/2130?referer=skiquality.com",
          "address": "Immeuble Bellecote - Le Charvet"
        },
        {
          "id": "1935",
          "name": "Delay Savoie Sport",
          "lat": 45.572968,
          "lng": 6.778254,
          "website": "https://www.alpy.com/fr/location-ski/parameters/1935?referer=skiquality.com",
          "address": "Immeuble les tournavelles - Les Villards"
        },
        {
          "id": "2175",
          "name": "Precision ski  EdenArc Le Chantel",
          "lat": 45.574589,
          "lng": 6.78459,
          "website": "https://www.alpy.com/fr/location-ski/parameters/2175?referer=skiquality.com",
          "address": "Résidence Odalys, Lieu dit le Chantel"
        },
        {
          "id": "2156",
          "name": "Precision Ski Charmettoger",
          "lat": 45.568642,
          "lng": 6.777533,
          "website": "https://www.alpy.com/fr/location-ski/parameters/2156?referer=skiquality.com",
          "address": "Residence L’aiguille grive 3, Les Arcs 1800"
        },
        {
          "id": "2155",
          "name": "Precision Ski Galerie du Charvet",
          "lat": 45.576305,
          "lng": 6.781115,
          "website": "https://www.alpy.com/fr/location-ski/parameters/2155?referer=skiquality.com",
          "address": "Galerie Marchande Pierra Menta"
        },
        {
          "id": "2154",
          "name": "Precision Ski Villards Place Basse",
          "lat": 45.572361,
          "lng": 6.77747,
          "website": "https://www.alpy.com/fr/location-ski/parameters/2154?referer=skiquality.com",
          "address": "Centre commercial Aiguilles des Glaciers"
        },
        {
          "id": "4727",
          "name": "Wocan Delivery - Arc 1800",
          "lat": 45.57566,
          "lng": 6.7805,
          "website": "https://www.alpy.com/fr/location-ski/parameters/4727?referer=skiquality.com",
          "address": "Hotel-Shop-Shuttle-Service"
        },
        {
          "id": "2345",
          "name": "Precision Ski Le Manoir",
          "lat": 45.57206,
          "lng": 6.82789,
          "website": "https://www.alpy.com/fr/location-ski/parameters/2345?referer=skiquality.com",
          "address": "Résidence Le Manoir de Savoie"
        },
        {
          "id": "2502",
          "name": "Precision Ski Precision 1950",
          "lat": 45.57217,
          "lng": 6.827045,
          "website": "https://www.alpy.com/fr/location-ski/parameters/2502?referer=skiquality.com",
          "address": "Résidence Les Hameaux du Glacier B"
        },
        {
          "id": "2157",
          "name": "Ski Freeride - Arcs 1950",
          "lat": 45.572266,
          "lng": 6.826667,
          "website": "https://www.alpy.com/fr/location-ski/parameters/2157?referer=skiquality.com",
          "address": "Refuge du Montagnard"
        },
        {
          "id": "2158",
          "name": "Ski Republic Spirit",
          "lat": 45.572262,
          "lng": 6.8275,
          "website": "https://www.alpy.com/fr/location-ski/parameters/2158?referer=skiquality.com",
          "address": "Jardin de la Cascade"
        },
        {
          "id": "4725",
          "name": "Wocan Delivery - Arc 1950",
          "lat": 45.57338,
          "lng": 6.82661,
          "website": "https://www.alpy.com/fr/location-ski/parameters/4725?referer=skiquality.com",
          "address": "Hotel-Shop-Shuttle-Service"
        },
        {
          "id": "1226",
          "name": "Arc 2000 Sport",
          "lat": 45.573288,
          "lng": 6.831779,
          "website": "https://www.alpy.com/fr/location-ski/parameters/1226?referer=skiquality.com",
          "address": "Chalet de l'ours"
        },
        {
          "id": "1945",
          "name": "Place Haute",
          "lat": 45.571056,
          "lng": 6.832041,
          "website": "https://www.alpy.com/fr/location-ski/parameters/1945?referer=skiquality.com",
          "address": "Hotel aiguille rouge  - Place haute"
        },
        {
          "id": "2346",
          "name": "Precision Ski Front de Neige",
          "lat": 45.571991,
          "lng": 6.83355,
          "website": "https://www.alpy.com/fr/location-ski/parameters/2346?referer=skiquality.com",
          "address": "Place Basse"
        }
      ]
    },
    "les-contamines-montjoie": {
      "name": "Les Contamines Montjoie",
      "center": [
        45.818204,
        6.726316
      ],
      "zoom": 14,
      "shops": [
        {
          "id": "1459",
          "name": "Centre",
          "lat": 45.821629,
          "lng": 6.72717,
          "website": "https://www.alpy.com/fr/location-ski/parameters/1459?referer=skiquality.com",
          "address": "125, Rte de Notre Dame de la Gorge"
        },
        {
          "id": "4632",
          "name": "Mountain Shop By Cuby",
          "lat": 45.822058,
          "lng": 6.72712,
          "website": "https://www.alpy.com/fr/location-ski/parameters/4632?referer=skiquality.com",
          "address": "71 Route de Notre Dame de la Gorge"
        },
        {
          "id": "4140",
          "name": "Ski Tout Schuss",
          "lat": 45.810925,
          "lng": 6.724658,
          "website": "https://www.alpy.com/fr/location-ski/parameters/4140?referer=skiquality.com",
          "address": "226 Chemin des Hameaux du Lay"
        }
      ]
    },
    "les-gets": {
      "name": "Les Gets",
      "center": [
        46.158485,
        6.669113
      ],
      "zoom": 14,
      "shops": [
        {
          "id": "217",
          "name": "Contat Sports",
          "lat": 46.158157,
          "lng": 6.668542,
          "website": "https://www.alpy.com/fr/location-ski/parameters/217?referer=skiquality.com",
          "address": "421 Rue du centre - Résidence Le Mont Chéry"
        },
        {
          "id": "4663",
          "name": "Ekosport-rent Desire Sports",
          "lat": 46.157544,
          "lng": 6.66739,
          "website": "https://www.alpy.com/fr/location-ski/parameters/4663?referer=skiquality.com",
          "address": "516 route du Centre"
        },
        {
          "id": "3137",
          "name": "Jordan's Sports",
          "lat": 46.15831,
          "lng": 6.66926,
          "website": "https://www.alpy.com/fr/location-ski/parameters/3137?referer=skiquality.com",
          "address": "128 Route du Front de Neige Im le Cry de Lys"
        },
        {
          "id": "3780",
          "name": "Le Grenier à Skis",
          "lat": 46.158649,
          "lng": 6.670788,
          "website": "https://www.alpy.com/fr/location-ski/parameters/3780?referer=skiquality.com",
          "address": "90 Chemin de Carry"
        },
        {
          "id": "4664",
          "name": "Ski Republic Centre Station Yolo Store",
          "lat": 46.158071,
          "lng": 6.66811,
          "website": "https://www.alpy.com/fr/location-ski/parameters/4664?referer=skiquality.com",
          "address": "448 rue du centre"
        },
        {
          "id": "2327",
          "name": "Ski Republic Rue du Centre Evasion Sport",
          "lat": 46.160179,
          "lng": 6.670588,
          "website": "https://www.alpy.com/fr/location-ski/parameters/2327?referer=skiquality.com",
          "address": "16 Rue de Pressenage"
        }
      ]
    },
    "les-houches": {
      "name": "Les Houches",
      "center": [
        45.891386,
        6.795936
      ],
      "zoom": 14,
      "shops": [
        {
          "id": "219",
          "name": "Cuby Sport",
          "lat": 45.893013,
          "lng": 6.800217,
          "website": "https://www.alpy.com/fr/location-ski/parameters/219?referer=skiquality.com",
          "address": "130 Avenue des Alpages"
        },
        {
          "id": "4766",
          "name": "Ekosport-rent Bellevue Sport",
          "lat": 45.889844,
          "lng": 6.78878,
          "website": "https://www.alpy.com/fr/location-ski/parameters/4766?referer=skiquality.com",
          "address": "12 rue de Bellevue"
        },
        {
          "id": "2245",
          "name": "Munari Sports Mont Blanc Sports",
          "lat": 45.8913,
          "lng": 6.79881,
          "website": "https://www.alpy.com/fr/location-ski/parameters/2245?referer=skiquality.com",
          "address": "156, rue de l'Eglise"
        }
      ]
    },
    "les-menuires": {
      "name": "Les Menuires",
      "center": [
        45.323375,
        6.539044
      ],
      "zoom": 14,
      "shops": [
        {
          "id": "2249",
          "name": "Absolu Sports",
          "lat": 45.315052,
          "lng": 6.543946,
          "website": "https://www.alpy.com/fr/location-ski/parameters/2249?referer=skiquality.com",
          "address": "1850 Route de Reberty, Le Genepi"
        },
        {
          "id": "3843",
          "name": "Balcons du Bettex",
          "lat": 45.342101,
          "lng": 6.526586,
          "website": "https://www.alpy.com/fr/location-ski/parameters/3843?referer=skiquality.com",
          "address": "23 Place du Bassin - Le Bettex"
        },
        {
          "id": "4686",
          "name": "Ekosport-rent Pirate Board Shop",
          "lat": 45.324279,
          "lng": 6.537929,
          "website": "https://www.alpy.com/fr/location-ski/parameters/4686?referer=skiquality.com",
          "address": "Galerie de l'Oisans La Croisette"
        },
        {
          "id": "355",
          "name": "Menuir'sports",
          "lat": 45.325447,
          "lng": 6.538395,
          "website": "https://www.alpy.com/fr/location-ski/parameters/355?referer=skiquality.com",
          "address": "\"La Croisette\" Galerie Commerciale de l’Adret - Front de  Neige"
        },
        {
          "id": "2248",
          "name": "Roc Sports",
          "lat": 45.319443,
          "lng": 6.537772,
          "website": "https://www.alpy.com/fr/location-ski/parameters/2248?referer=skiquality.com",
          "address": "Immeuble l'Argousier - Les Fontanettes"
        },
        {
          "id": "2383",
          "name": "Rosael Sports",
          "lat": 45.318382,
          "lng": 6.547473,
          "website": "https://www.alpy.com/fr/location-ski/parameters/2383?referer=skiquality.com",
          "address": "486, rue des Cimes, Les chalets du Soleil/Hotel Kaya, Reberty 2000"
        },
        {
          "id": "2247",
          "name": "Ski Republic Brelin Le Capricorne",
          "lat": 45.32679,
          "lng": 6.540599,
          "website": "https://www.alpy.com/fr/location-ski/parameters/2247?referer=skiquality.com",
          "address": "Le Capricorne - Résidence Brelin -"
        },
        {
          "id": "2330",
          "name": "Ski Republic La Croisette - Extremoutain",
          "lat": 45.323948,
          "lng": 6.53782,
          "website": "https://www.alpy.com/fr/location-ski/parameters/2330?referer=skiquality.com",
          "address": "Immeuble Vanoise - La Croisette"
        },
        {
          "id": "358",
          "name": "Snow Sport",
          "lat": 45.31493,
          "lng": 6.540873,
          "website": "https://www.alpy.com/fr/location-ski/parameters/358?referer=skiquality.com",
          "address": "Centre Commercial Les Bruyères"
        }
      ]
    },
    "les-saisies": {
      "name": "Les Saisies",
      "center": [
        45.757688,
        6.539793
      ],
      "zoom": 14,
      "shops": [
        {
          "id": "359",
          "name": "Les Volatiles",
          "lat": 45.757694,
          "lng": 6.537415,
          "website": "https://www.alpy.com/fr/location-ski/parameters/359?referer=skiquality.com",
          "address": "196 Avenue des J.O."
        },
        {
          "id": "2251",
          "name": "Precision Ski Centre Station Isabella Sports",
          "lat": 45.75753,
          "lng": 6.539253,
          "website": "https://www.alpy.com/fr/location-ski/parameters/2251?referer=skiquality.com",
          "address": "avenue des Jeux Olympiques 73620 Les Saisies"
        },
        {
          "id": "3833",
          "name": "Ski Republic Centre Station Alti Sports",
          "lat": 45.757549,
          "lng": 6.538957,
          "website": "https://www.alpy.com/fr/location-ski/parameters/3833?referer=skiquality.com",
          "address": "Avenue des Jeux Olympiques 73620 Hauteluce"
        },
        {
          "id": "3840",
          "name": "Twoskiglisse",
          "lat": 45.75798,
          "lng": 6.543546,
          "website": "https://www.alpy.com/fr/location-ski/parameters/3840?referer=skiquality.com",
          "address": "Les Hauts lieux"
        }
      ]
    },
    "megeve": {
      "name": "Megève",
      "center": [
        45.860075,
        6.617139
      ],
      "zoom": 14,
      "shops": [
        {
          "id": "220",
          "name": "Anouk Socquet Sports",
          "lat": 45.854649,
          "lng": 6.616037,
          "website": "https://www.alpy.com/fr/location-ski/parameters/220?referer=skiquality.com",
          "address": "Carrefour de Rochebrune"
        },
        {
          "id": "2575",
          "name": "Ski Flash",
          "lat": 45.865501,
          "lng": 6.618241,
          "website": "https://www.alpy.com/fr/location-ski/parameters/2575?referer=skiquality.com",
          "address": "905 Route du Jaillet"
        }
      ]
    },
    "meribel": {
      "name": "Méribel",
      "center": [
        45.397187,
        6.567499
      ],
      "zoom": 14,
      "shops": [
        {
          "id": "360",
          "name": "Alp'sports",
          "lat": 45.399258,
          "lng": 6.573983,
          "website": "https://www.alpy.com/fr/location-ski/parameters/360?referer=skiquality.com",
          "address": "Galerie Commerciale Plateau de Morel"
        },
        {
          "id": "4187",
          "name": "AUDACIUS SHOP",
          "lat": 45.397877,
          "lng": 6.564395,
          "website": "https://www.alpy.com/fr/location-ski/parameters/4187?referer=skiquality.com",
          "address": "61, rue des Jeux Olympiques – Immeuble le tremplin"
        },
        {
          "id": "2170",
          "name": "Precision Ski Méribel Centre La Chaudanne",
          "lat": 45.394081,
          "lng": 6.56691,
          "website": "https://www.alpy.com/fr/location-ski/parameters/2170?referer=skiquality.com",
          "address": "Immeuble Le Tremplin, Montée de la Chaudanne"
        },
        {
          "id": "2171",
          "name": "Precision Ski Meribel Centre Marine",
          "lat": 45.397251,
          "lng": 6.56623,
          "website": "https://www.alpy.com/fr/location-ski/parameters/2171?referer=skiquality.com",
          "address": "Résidence La Tougnette, Rue du Centre"
        },
        {
          "id": "3553",
          "name": "White Storm Méribel",
          "lat": 45.397469,
          "lng": 6.565976,
          "website": "https://www.alpy.com/fr/location-ski/parameters/3553?referer=skiquality.com",
          "address": "530 rue des Jeux Olympiques - La Tougnete"
        }
      ]
    },
    "montchavin---la-plagne": {
      "name": "Montchavin-La-Plagne",
      "center": [
        45.559733,
        6.736335
      ],
      "zoom": 14,
      "shops": [
        {
          "id": "4348",
          "name": "Ekosport-rent Montchavin Sport",
          "lat": 45.560299,
          "lng": 6.735779,
          "website": "https://www.alpy.com/fr/location-ski/parameters/4348?referer=skiquality.com",
          "address": "2 rue Principale"
        },
        {
          "id": "1479",
          "name": "Montchavin",
          "lat": 45.559818,
          "lng": 6.736295,
          "website": "https://www.alpy.com/fr/location-ski/parameters/1479?referer=skiquality.com",
          "address": "2 chemin du Paradisio"
        },
        {
          "id": "2307",
          "name": "Ski Republic Montchavin  Les 3 Glaciers",
          "lat": 45.558037,
          "lng": 6.739023,
          "website": "https://www.alpy.com/fr/location-ski/parameters/2307?referer=skiquality.com",
          "address": "Résidence Les 3 Glaciers, 20 Chemin du Paradisio - Lieu dit : Le Replat 73210 Montchavin-les-Coches"
        },
        {
          "id": "4069",
          "name": "Ski Republic Montchavin Village",
          "lat": 45.560211,
          "lng": 6.7348,
          "website": "https://www.alpy.com/fr/location-ski/parameters/4069?referer=skiquality.com",
          "address": "Immeuble La Porte de Montchavin"
        },
        {
          "id": "4352",
          "name": "Ski Shop Montchavin Sportshop Paradiski",
          "lat": 45.560299,
          "lng": 6.735779,
          "website": "https://www.alpy.com/fr/location-ski/parameters/4352?referer=skiquality.com",
          "address": "5 rue de la Glisse"
        }
      ]
    },
    "montriond": {
      "name": "Montriond",
      "center": [
        46.205532,
        6.727804
      ],
      "zoom": 14,
      "shops": [
        {
          "id": "222",
          "name": "Ardent Sports",
          "lat": 46.196583,
          "lng": 6.694413,
          "website": "https://www.alpy.com/fr/location-ski/parameters/222?referer=skiquality.com",
          "address": "Centre Station"
        },
        {
          "id": "223",
          "name": "Ardent Sports (Télécabine Ardent)",
          "lat": 46.214481,
          "lng": 6.761194,
          "website": "https://www.alpy.com/fr/location-ski/parameters/223?referer=skiquality.com",
          "address": "Télécabine d'Ardent - Domaine d'Avoriaz"
        }
      ]
    },
    "morzine": {
      "name": "Morzine",
      "center": [
        46.183184,
        6.708804
      ],
      "zoom": 14,
      "shops": [
        {
          "id": "4678",
          "name": "Ekosport-rent Alpine Sports",
          "lat": 46.183026,
          "lng": 6.701688,
          "website": "https://www.alpy.com/fr/location-ski/parameters/4678?referer=skiquality.com",
          "address": "237 Route de la Plagne"
        },
        {
          "id": "1482",
          "name": "Le Bourg",
          "lat": 46.179379,
          "lng": 6.706317,
          "website": "https://www.alpy.com/fr/location-ski/parameters/1482?referer=skiquality.com",
          "address": "180, rue du Bourg"
        },
        {
          "id": "226",
          "name": "Mathias Sport",
          "lat": 46.180962,
          "lng": 6.702649,
          "website": "https://www.alpy.com/fr/location-ski/parameters/226?referer=skiquality.com",
          "address": "60 TDM du Pleney"
        },
        {
          "id": "2046",
          "name": "Mathias Sports (Hôtel Le Crêt)",
          "lat": 46.187477,
          "lng": 6.695261,
          "website": "https://www.alpy.com/fr/location-ski/parameters/2046?referer=skiquality.com",
          "address": "905 Route de la Plagne"
        },
        {
          "id": "4353",
          "name": "Precision Ski Front De Neige Pleney La Clinik",
          "lat": 46.180279,
          "lng": 6.70231,
          "website": "https://www.alpy.com/fr/location-ski/parameters/4353?referer=skiquality.com",
          "address": "141 Taille de Mas du Pleney"
        },
        {
          "id": "4146",
          "name": "Prodains Sports",
          "lat": 46.189808,
          "lng": 6.753858,
          "website": "https://www.alpy.com/fr/location-ski/parameters/4146?referer=skiquality.com",
          "address": "Les prodains"
        },
        {
          "id": "2260",
          "name": "Ski Republic Centre Station Morz'na Sport",
          "lat": 46.181095,
          "lng": 6.705067,
          "website": "https://www.alpy.com/fr/location-ski/parameters/2260?referer=skiquality.com",
          "address": "3 Rond-Point de la Crusaz"
        },
        {
          "id": "1484",
          "name": "Super Morzine",
          "lat": 46.183445,
          "lng": 6.70328,
          "website": "https://www.alpy.com/fr/location-ski/parameters/1484?referer=skiquality.com",
          "address": "9 Taille Mas de la Passerelle"
        }
      ]
    },
    "notre-dame-du-pre": {
      "name": "Notre-Dame-du-Pré",
      "center": [
        45.51149,
        6.59446
      ],
      "zoom": 14,
      "shops": [
        {
          "id": "4997",
          "name": "Wocan Delivery - Notre dame-du-pré",
          "lat": 45.51149,
          "lng": 6.59446,
          "website": "https://www.alpy.com/fr/location-ski/parameters/4997?referer=skiquality.com",
          "address": "Hotel-Shop-Shuttle-Service"
        }
      ]
    },
    "oz-en-oisans": {
      "name": "Oz-en-Oisans",
      "center": [
        45.128968,
        6.071994
      ],
      "zoom": 14,
      "shops": [
        {
          "id": "284",
          "name": "Boit'a Skis",
          "lat": 45.129765,
          "lng": 6.072309,
          "website": "https://www.alpy.com/fr/location-ski/parameters/284?referer=skiquality.com",
          "address": "Résidence les Airelles"
        },
        {
          "id": "4318",
          "name": "Ekosport-rent Loc Skis OZ",
          "lat": 45.12817,
          "lng": 6.07168,
          "website": "https://www.alpy.com/fr/location-ski/parameters/4318?referer=skiquality.com",
          "address": "Front de Neige"
        }
      ]
    },
    "peisey-vallandry": {
      "name": "Peisey-Vallandry",
      "center": [
        45.555409,
        6.76246
      ],
      "zoom": 14,
      "shops": [
        {
          "id": "368",
          "name": "Berard Skishop",
          "lat": 45.556419,
          "lng": 6.762444,
          "website": "https://www.alpy.com/fr/location-ski/parameters/368?referer=skiquality.com",
          "address": "Centre Commercial de Vallandry"
        },
        {
          "id": "4310",
          "name": "Ekosport-rent Berard Skishop Vallandry",
          "lat": 45.556625,
          "lng": 6.762238,
          "website": "https://www.alpy.com/fr/location-ski/parameters/4310?referer=skiquality.com",
          "address": "Galerie Commerciale de Vallandry , Rte des Michailles, 73210 Landry"
        },
        {
          "id": "369",
          "name": "Noz Sports",
          "lat": 45.552105,
          "lng": 6.762393,
          "website": "https://www.alpy.com/fr/location-ski/parameters/369?referer=skiquality.com",
          "address": "Centre Cial du Soleil / Plan Peisey"
        },
        {
          "id": "3505",
          "name": "Vallandry Sports",
          "lat": 45.556488,
          "lng": 6.762763,
          "website": "https://www.alpy.com/fr/location-ski/parameters/3505?referer=skiquality.com",
          "address": "Centre Commercial Vallandry, D226"
        }
      ]
    },
    "pralognan-la-vanoise": {
      "name": "Pralognan-la-Vanoise",
      "center": [
        45.38056,
        6.72271
      ],
      "zoom": 14,
      "shops": [
        {
          "id": "1722",
          "name": "Alpigliss",
          "lat": 45.379868,
          "lng": 6.723019,
          "website": "https://www.alpy.com/fr/location-ski/parameters/1722?referer=skiquality.com",
          "address": "Immeuble l Avenue de Chasseforêt"
        },
        {
          "id": "2490",
          "name": "Precision Ski Centre Station Soopy",
          "lat": 45.381252,
          "lng": 6.722402,
          "website": "https://www.alpy.com/fr/location-ski/parameters/2490?referer=skiquality.com",
          "address": "47 Avenue du Grand Couloir"
        }
      ]
    },
    "praz-de-lys-sommand": {
      "name": "Praz de Lys Sommand",
      "center": [
        46.148924,
        6.592406
      ],
      "zoom": 14,
      "shops": [
        {
          "id": "211",
          "name": "Le Spot du Praz",
          "lat": 46.148888,
          "lng": 6.592742,
          "website": "https://www.alpy.com/fr/location-ski/parameters/211?referer=skiquality.com",
          "address": "1117 Route de chevaly"
        },
        {
          "id": "5034",
          "name": "Ski Republic Ski Shop Praz De Lys",
          "lat": 46.14896,
          "lng": 6.59207,
          "website": "https://www.alpy.com/fr/location-ski/parameters/5034?referer=skiquality.com",
          "address": "1159 route de chevaly"
        }
      ]
    },
    "praz-sur-arly": {
      "name": "Praz-sur-Arly",
      "center": [
        45.837303,
        6.570165
      ],
      "zoom": 14,
      "shops": [
        {
          "id": "228",
          "name": "Curtet Sport",
          "lat": 45.837303,
          "lng": 6.570165,
          "website": "https://www.alpy.com/fr/location-ski/parameters/228?referer=skiquality.com",
          "address": "121, route du Val d'Arly"
        }
      ]
    },
    "saint-colomban-des-villards": {
      "name": "Saint-Colomban-des-Villards",
      "center": [
        45.29414,
        6.226481
      ],
      "zoom": 14,
      "shops": [
        {
          "id": "372",
          "name": "Skis Services",
          "lat": 45.29414,
          "lng": 6.226481,
          "website": "https://www.alpy.com/fr/location-ski/parameters/372?referer=skiquality.com",
          "address": "Centre Station Village"
        }
      ]
    },
    "saint-francois-longchamp": {
      "name": "Saint-François-Longchamp",
      "center": [
        45.418245,
        6.363052
      ],
      "zoom": 14,
      "shops": [
        {
          "id": "3550",
          "name": "Ravoir'sports (L’Alouette)",
          "lat": 45.418812,
          "lng": 6.364683,
          "website": "https://www.alpy.com/fr/location-ski/parameters/3550?referer=skiquality.com",
          "address": "L’Alouette"
        },
        {
          "id": "373",
          "name": "Ravoir'sports (La Madeleine)",
          "lat": 45.417191,
          "lng": 6.362641,
          "website": "https://www.alpy.com/fr/location-ski/parameters/373?referer=skiquality.com",
          "address": "Résidence La Madeleine"
        },
        {
          "id": "374",
          "name": "Ravoir'sports (les 4 Vallées)",
          "lat": 45.421001,
          "lng": 6.363945,
          "website": "https://www.alpy.com/fr/location-ski/parameters/374?referer=skiquality.com",
          "address": "Les 4 vallées"
        },
        {
          "id": "375",
          "name": "Ravoir'sports (les Longes)",
          "lat": 45.415245,
          "lng": 6.358802,
          "website": "https://www.alpy.com/fr/location-ski/parameters/375?referer=skiquality.com",
          "address": "Les Longes"
        },
        {
          "id": "2336",
          "name": "Ski Rep Centre 1650 St François Sports Madeleine",
          "lat": 45.416912,
          "lng": 6.362846,
          "website": "https://www.alpy.com/fr/location-ski/parameters/2336?referer=skiquality.com",
          "address": "place de la Madeleine"
        },
        {
          "id": "4679",
          "name": "Ski Republic Centre Station 1650 SNO2",
          "lat": 45.420311,
          "lng": 6.365398,
          "website": "https://www.alpy.com/fr/location-ski/parameters/4679?referer=skiquality.com",
          "address": "Immeuble le Frêne - Place de la Lauzière"
        }
      ]
    },
    "saint-gervais-mont-blanc": {
      "name": "Saint-Gervais Mont-Blanc",
      "center": [
        45.886419,
        6.703661
      ],
      "zoom": 14,
      "shops": [
        {
          "id": "5049",
          "name": "Ago Sports",
          "lat": 45.89223,
          "lng": 6.71288,
          "website": "https://www.alpy.com/fr/location-ski/parameters/5049?referer=skiquality.com",
          "address": "129 avenue du Mont d'Arbois"
        },
        {
          "id": "229",
          "name": "Loca Ski Bettex",
          "lat": 45.875011,
          "lng": 6.685119,
          "website": "https://www.alpy.com/fr/location-ski/parameters/229?referer=skiquality.com",
          "address": "4360 Route du Bettex"
        },
        {
          "id": "1232",
          "name": "Loca Ski Saint Gervais",
          "lat": 45.892017,
          "lng": 6.712985,
          "website": "https://www.alpy.com/fr/location-ski/parameters/1232?referer=skiquality.com",
          "address": "191 avenue du Mont d'Arbois"
        }
      ]
    },
    "saint-jean-darves": {
      "name": "Saint-Jean-d'Arves",
      "center": [
        45.214262,
        6.264051
      ],
      "zoom": 14,
      "shops": [
        {
          "id": "2275",
          "name": "Raymond Sports",
          "lat": 45.2141,
          "lng": 6.264192,
          "website": "https://www.alpy.com/fr/location-ski/parameters/2275?referer=skiquality.com",
          "address": "La Chal"
        },
        {
          "id": "1227",
          "name": "Val d'Arvan",
          "lat": 45.214424,
          "lng": 6.26391,
          "website": "https://www.alpy.com/fr/location-ski/parameters/1227?referer=skiquality.com",
          "address": "La Chal 1600"
        }
      ]
    },
    "saint-martin-de-belleville": {
      "name": "Saint-Martin-de-Belleville",
      "center": [
        45.376705,
        6.505126
      ],
      "zoom": 14,
      "shops": [
        {
          "id": "3547",
          "name": "Belleville Pro Glisse",
          "lat": 45.376114,
          "lng": 6.506037,
          "website": "https://www.alpy.com/fr/location-ski/parameters/3547?referer=skiquality.com",
          "address": "Chemin de Notre Dame - quartier CASEBLANCHE"
        },
        {
          "id": "378",
          "name": "Jean Sports",
          "lat": 45.377296,
          "lng": 6.504215,
          "website": "https://www.alpy.com/fr/location-ski/parameters/378?referer=skiquality.com",
          "address": "Les Grangeraies - Rue Notre Dame"
        }
      ]
    },
    "saint-sorlin-darves": {
      "name": "Saint-Sorlin-d'Arves",
      "center": [
        45.220677,
        6.224942
      ],
      "zoom": 14,
      "shops": [
        {
          "id": "1723",
          "name": "Arthur Sports",
          "lat": 45.22131,
          "lng": 6.229232,
          "website": "https://www.alpy.com/fr/location-ski/parameters/1723?referer=skiquality.com",
          "address": "Centre vil Champrond"
        },
        {
          "id": "4659",
          "name": "Ekosport-rent L’Ouillon Sports",
          "lat": 45.22029,
          "lng": 6.22277,
          "website": "https://www.alpy.com/fr/location-ski/parameters/4659?referer=skiquality.com",
          "address": "Les Gentianes - Le Bourg"
        },
        {
          "id": "379",
          "name": "L'Ouillon Sports",
          "lat": 45.220432,
          "lng": 6.222823,
          "website": "https://www.alpy.com/fr/location-ski/parameters/379?referer=skiquality.com",
          "address": "Les Gentianes - Le Bourg"
        }
      ]
    },
    "sainte-foy-tarentaise": {
      "name": "Sainte-Foy-Tarentaise",
      "center": [
        45.576092,
        6.89393
      ],
      "zoom": 14,
      "shops": [
        {
          "id": "2182",
          "name": "Ski Republic Ste Foy Centre",
          "lat": 45.576092,
          "lng": 6.89393,
          "website": "https://www.alpy.com/fr/location-ski/parameters/2182?referer=skiquality.com",
          "address": "Bon Conseil"
        }
      ]
    },
    "samoens": {
      "name": "Samoëns",
      "center": [
        46.082177,
        6.724652
      ],
      "zoom": 14,
      "shops": [
        {
          "id": "2812",
          "name": "100% Ski",
          "lat": 46.084194,
          "lng": 6.724645,
          "website": "https://www.alpy.com/fr/location-ski/parameters/2812?referer=skiquality.com",
          "address": "166 Grande rue"
        },
        {
          "id": "4319",
          "name": "Ekosport-rent - Pellissier Sport",
          "lat": 46.083561,
          "lng": 6.725349,
          "website": "https://www.alpy.com/fr/location-ski/parameters/4319?referer=skiquality.com",
          "address": "47 Grande Rue"
        },
        {
          "id": "232",
          "name": "Passion Glisse",
          "lat": 46.082684,
          "lng": 6.723763,
          "website": "https://www.alpy.com/fr/location-ski/parameters/232?referer=skiquality.com",
          "address": "16 Place de la Gare"
        },
        {
          "id": "4668",
          "name": "Precision Ski Route de Sixt Big Bear",
          "lat": 46.08282,
          "lng": 6.72867,
          "website": "https://www.alpy.com/fr/location-ski/parameters/4668?referer=skiquality.com",
          "address": "93B Place du Criou"
        },
        {
          "id": "2338",
          "name": "Ski Family",
          "lat": 46.083778,
          "lng": 6.723722,
          "website": "https://www.alpy.com/fr/location-ski/parameters/2338?referer=skiquality.com",
          "address": "58, rue des Glaciers"
        },
        {
          "id": "4396",
          "name": "Ski Rep Route du Grand Massif Sports Experiences",
          "lat": 46.076927,
          "lng": 6.720211,
          "website": "https://www.alpy.com/fr/location-ski/parameters/4396?referer=skiquality.com",
          "address": "718 route du Grand Massif"
        },
        {
          "id": "4397",
          "name": "Ski Republic Avenue Fer à Cheval - J'aime Sport",
          "lat": 46.081272,
          "lng": 6.726202,
          "website": "https://www.alpy.com/fr/location-ski/parameters/4397?referer=skiquality.com",
          "address": "217 avenue du Fer à Cheval"
        }
      ]
    },
    "sixt-fer-a-cheval": {
      "name": "Sixt-Fer-à-Cheval",
      "center": [
        46.053406,
        6.774293
      ],
      "zoom": 14,
      "shops": [
        {
          "id": "234",
          "name": "Lionel Sports",
          "lat": 46.053406,
          "lng": 6.774293,
          "website": "https://www.alpy.com/fr/location-ski/parameters/234?referer=skiquality.com",
          "address": "Le Ruan - Chef Lieu"
        }
      ]
    },
    "val-cenis": {
      "name": "Val Cenis",
      "center": [
        45.285275,
        6.876508
      ],
      "zoom": 14,
      "shops": [
        {
          "id": "2292",
          "name": "Ski Republic Centre Lanslebourg César Sports",
          "lat": 45.285275,
          "lng": 6.876508,
          "website": "https://www.alpy.com/fr/location-ski/parameters/2292?referer=skiquality.com",
          "address": "29 Rue du Mont Cenis"
        }
      ]
    },
    "val-disere": {
      "name": "Val d'Isère",
      "center": [
        45.450054,
        6.977164
      ],
      "zoom": 14,
      "shops": [
        {
          "id": "390",
          "name": "Boraso Sport",
          "lat": 45.448025,
          "lng": 6.979373,
          "website": "https://www.alpy.com/fr/location-ski/parameters/390?referer=skiquality.com",
          "address": "Place des Dolmites"
        },
        {
          "id": "2631",
          "name": "Boraso Sport Contact",
          "lat": 45.459995,
          "lng": 6.964077,
          "website": "https://www.alpy.com/fr/location-ski/parameters/2631?referer=skiquality.com",
          "address": "Route Des Etroits - La Daille"
        },
        {
          "id": "388",
          "name": "Eskiador Val d'Isère",
          "lat": 45.452847,
          "lng": 6.973773,
          "website": "https://www.alpy.com/fr/location-ski/parameters/388?referer=skiquality.com",
          "address": "389 Avenue Olympique – Résidence le Portillo"
        },
        {
          "id": "2160",
          "name": "Freeride Val d'Isère",
          "lat": 45.44828,
          "lng": 6.98043,
          "website": "https://www.alpy.com/fr/location-ski/parameters/2160?referer=skiquality.com",
          "address": "Immeuble Val Village C, Rue de la Poste"
        },
        {
          "id": "389",
          "name": "Iseran Sports",
          "lat": 45.446964,
          "lng": 6.986606,
          "website": "https://www.alpy.com/fr/location-ski/parameters/389?referer=skiquality.com",
          "address": "Résidence Avenue du Prariond"
        },
        {
          "id": "2506",
          "name": "Precision Ski La Poudreuse",
          "lat": 45.449566,
          "lng": 6.977076,
          "website": "https://www.alpy.com/fr/location-ski/parameters/2506?referer=skiquality.com",
          "address": "Rue du Parc des Sports"
        },
        {
          "id": "2179",
          "name": "Ski Republic Centre Station  Rond Point des Pistes",
          "lat": 45.44521,
          "lng": 6.97716,
          "website": "https://www.alpy.com/fr/location-ski/parameters/2179?referer=skiquality.com",
          "address": "Rond Point des Pistes"
        },
        {
          "id": "2180",
          "name": "Ski Republic Centre Station Portillo",
          "lat": 45.452599,
          "lng": 6.97389,
          "website": "https://www.alpy.com/fr/location-ski/parameters/2180?referer=skiquality.com",
          "address": "Immeuble le Portillo, Avenue Olympique"
        },
        {
          "id": "2181",
          "name": "Ski Republic Centre Station Val Village",
          "lat": 45.4478,
          "lng": 6.97986,
          "website": "https://www.alpy.com/fr/location-ski/parameters/2181?referer=skiquality.com",
          "address": "Le Front de Neige"
        },
        {
          "id": "3268",
          "name": "Valsnow",
          "lat": 45.449257,
          "lng": 6.979396,
          "website": "https://www.alpy.com/fr/location-ski/parameters/3268?referer=skiquality.com",
          "address": "Centre station Val Snow, 173 Av. Olympique"
        }
      ]
    },
    "val-thorens": {
      "name": "Val Thorens",
      "center": [
        45.297521,
        6.581331
      ],
      "zoom": 14,
      "shops": [
        {
          "id": "393",
          "name": "AUDACIUS SHOP",
          "lat": 45.297527,
          "lng": 6.583314,
          "website": "https://www.alpy.com/fr/location-ski/parameters/393?referer=skiquality.com",
          "address": "Galerie Commerciale de l'Hotel \"le Val Thorens\""
        },
        {
          "id": "2296",
          "name": "Black Ski Soleil Maverick",
          "lat": 45.296791,
          "lng": 6.578515,
          "website": "https://www.alpy.com/fr/location-ski/parameters/2296?referer=skiquality.com",
          "address": "Immeuble Montana Soleil, rue du Soleil"
        },
        {
          "id": "2297",
          "name": "Chalet des Neiges Skishop",
          "lat": 45.297092,
          "lng": 6.586167,
          "website": "https://www.alpy.com/fr/location-ski/parameters/2297?referer=skiquality.com",
          "address": "Résidence chalet des neiges - Rue de Gebroulaz"
        },
        {
          "id": "392",
          "name": "Eskiador Val Thorens",
          "lat": 45.296902,
          "lng": 6.576864,
          "website": "https://www.alpy.com/fr/location-ski/parameters/392?referer=skiquality.com",
          "address": "599 Rue  Du Soleil"
        },
        {
          "id": "2294",
          "name": "SALOMON Corner-The North Face Val Thorens",
          "lat": 45.298,
          "lng": 6.580929,
          "website": "https://www.alpy.com/fr/location-ski/parameters/2294?referer=skiquality.com",
          "address": "101 rue Caron, Galerie Caron, lot 20"
        },
        {
          "id": "2498",
          "name": "Ski Republic Chamois Sport",
          "lat": 45.296631,
          "lng": 6.58126,
          "website": "https://www.alpy.com/fr/location-ski/parameters/2498?referer=skiquality.com",
          "address": "Résidence Le Chamois d'Or, Rue du Soleil"
        },
        {
          "id": "2189",
          "name": "Ski Republic Peclet",
          "lat": 45.296768,
          "lng": 6.58527,
          "website": "https://www.alpy.com/fr/location-ski/parameters/2189?referer=skiquality.com",
          "address": "Place Peclet"
        },
        {
          "id": "394",
          "name": "Top Sports",
          "lat": 45.297924,
          "lng": 6.580254,
          "website": "https://www.alpy.com/fr/location-ski/parameters/394?referer=skiquality.com",
          "address": "Centre Commercial de Caron"
        },
        {
          "id": "1866",
          "name": "Val Loc 2400",
          "lat": 45.300053,
          "lng": 6.579405,
          "website": "https://www.alpy.com/fr/location-ski/parameters/1866?referer=skiquality.com",
          "address": "Résidence Val 2400 - Les Balcons"
        }
      ]
    },
    "valfrejus": {
      "name": "Valfrejus",
      "center": [
        45.172855,
        6.651837
      ],
      "zoom": 14,
      "shops": [
        {
          "id": "4189",
          "name": "Clic and ski Valfréjus",
          "lat": 45.173161,
          "lng": 6.652252,
          "website": "https://www.alpy.com/fr/location-ski/parameters/4189?referer=skiquality.com",
          "address": "590 rue des Bettets"
        },
        {
          "id": "4073",
          "name": "Ski Republic Centre Station Terra Modana Sport",
          "lat": 45.17255,
          "lng": 6.651422,
          "website": "https://www.alpy.com/fr/location-ski/parameters/4073?referer=skiquality.com",
          "address": "Pied des pistes 660 - Rue des Bettets - Résidence du Thabor"
        }
      ]
    },
    "valloire": {
      "name": "Valloire",
      "center": [
        45.161111,
        6.427527
      ],
      "zoom": 14,
      "shops": [
        {
          "id": "397",
          "name": "Martin Sports",
          "lat": 45.163746,
          "lng": 6.430163,
          "website": "https://www.alpy.com/fr/location-ski/parameters/397?referer=skiquality.com",
          "address": "rue de Tig Immeuble Crêt de Peré"
        },
        {
          "id": "1728",
          "name": "Nagano Sport",
          "lat": 45.1451,
          "lng": 6.419627,
          "website": "https://www.alpy.com/fr/location-ski/parameters/1728?referer=skiquality.com",
          "address": "2306 Route Les Verneys"
        },
        {
          "id": "2342",
          "name": "Precision Ski Centre Station Magnin Sports",
          "lat": 45.165852,
          "lng": 6.427262,
          "website": "https://www.alpy.com/fr/location-ski/parameters/2342?referer=skiquality.com",
          "address": "Rue des Grandes Alpes"
        },
        {
          "id": "1727",
          "name": "Snow And Ski",
          "lat": 45.165188,
          "lng": 6.432134,
          "website": "https://www.alpy.com/fr/location-ski/parameters/1727?referer=skiquality.com",
          "address": "Route du télégraphe - Zone des Charbonnières"
        },
        {
          "id": "4209",
          "name": "Snow and Ski Village",
          "lat": 45.165668,
          "lng": 6.42845,
          "website": "https://www.alpy.com/fr/location-ski/parameters/4209?referer=skiquality.com",
          "address": "Résidence l'étoile des neiges - Route des grandes alpes"
        }
      ]
    },
    "valmeinier": {
      "name": "Valmeinier",
      "center": [
        45.174351,
        6.4936
      ],
      "zoom": 14,
      "shops": [
        {
          "id": "2343",
          "name": "Ski Republic Front De Neige Valmeinier Sport 1800",
          "lat": 45.174351,
          "lng": 6.4936,
          "website": "https://www.alpy.com/fr/location-ski/parameters/2343?referer=skiquality.com",
          "address": "Balcon des Islettes, Valmeinier 1800"
        }
      ]
    },
    "valmorel": {
      "name": "Valmorel",
      "center": [
        45.461555,
        6.442695
      ],
      "zoom": 14,
      "shops": [
        {
          "id": "401",
          "name": "Deguili Sports",
          "lat": 45.46138,
          "lng": 6.442092,
          "website": "https://www.alpy.com/fr/location-ski/parameters/401?referer=skiquality.com",
          "address": "Rue du Bourg, Bourg Morel n°1"
        },
        {
          "id": "3636",
          "name": "Precision Ski Ski Xperience",
          "lat": 45.461624,
          "lng": 6.444014,
          "website": "https://www.alpy.com/fr/location-ski/parameters/3636?referer=skiquality.com",
          "address": "21-27 Bourg Morel"
        },
        {
          "id": "4749",
          "name": "Wocan Delivery - Valmorel",
          "lat": 45.46166,
          "lng": 6.44198,
          "website": "https://www.alpy.com/fr/location-ski/parameters/4749?referer=skiquality.com",
          "address": "Hotel-Shop-Shuttle-Service"
        }
      ]
    },
    "vaujany": {
      "name": "Vaujany",
      "center": [
        45.158163,
        6.079409
      ],
      "zoom": 14,
      "shops": [
        {
          "id": "285",
          "name": "Atou Sport",
          "lat": 45.157955,
          "lng": 6.079708,
          "website": "https://www.alpy.com/fr/location-ski/parameters/285?referer=skiquality.com",
          "address": "474 route du col du sabot"
        },
        {
          "id": "4322",
          "name": "Ekosport-rent Ride For Life",
          "lat": 45.158371,
          "lng": 6.07911,
          "website": "https://www.alpy.com/fr/location-ski/parameters/4322?referer=skiquality.com",
          "address": "Place du téléphérique"
        }
      ]
    }
  }
}