{"stations":{"aillon-margeriaz":{"name":"Aillon-Margeriaz","center":[45.642427,6.062558],"zoom":13,"shops":[{"id":"4391","name":"Ekosport-Rent MARGERIAZ LOCATIONS","lat":45.642427,"lng":6.062558,"address":"Station Aillon-Margeriaz 1400 Immeuble Le Margeriaz","website":"https://www.alpy.com/fr/location-ski/parameters/4391?referer=skiquality.com"}]},"albiez-montrond":{"name":"Albiez Montrond","center":[45.20866,6.336301],"zoom":13,"shops":[{"id":"314","name":"Aux Deux Frères","lat":45.20866,"lng":6.336301,"address":"Les Vernataux - Le mollard","website":"https://www.alpy.com/fr/location-ski/parameters/314?referer=skiquality.com"}]},"alpe-dhuez":{"name":"Alpe d'Huez ","center":[45.092071,6.069955],"zoom":13,"shops":[{"id":"264","name":"Ze Shop 2","lat":45.090691,"lng":6.064571,"address":"Place Joseph Paganon- Vieil Alpe","website":"https://www.alpy.com/fr/location-ski/parameters/264?referer=skiquality.com"},{"id":"263","name":"Sport 2000 Les Bergers (Olivier Sports)","lat":45.089996,"lng":6.076608,"address":"Centre Commercial des Bergers - Situé aux pieds des pistes et résidences","website":"https://www.alpy.com/fr/location-ski/parameters/263?referer=skiquality.com"},{"id":"3970","name":"Ski Republic Les Bergers Nevada Sports","lat":45.089664,"lng":6.07668,"address":"Centre commercial les Bergers","website":"https://www.alpy.com/fr/location-ski/parameters/3970?referer=skiquality.com"},{"id":"2310","name":"Ski Rep Rond Point des Pistes Richard 3 Sports","lat":45.096802,"lng":6.0697,"address":"Rond Point des Pistes - 105 rue du Pic Blanc","website":"https://www.alpy.com/fr/location-ski/parameters/2310?referer=skiquality.com"},{"id":"267","name":"Rocky Sports (L'éclose)","lat":45.087925,"lng":6.067693,"address":"L'Eclose -  524 rue du 93ème RAM","website":"https://www.alpy.com/fr/location-ski/parameters/267?referer=skiquality.com"},{"id":"262","name":"Premium Sport","lat":45.090897,"lng":6.063416,"address":"1153 Route d'Huez (Vieil Alpe)","website":"https://www.alpy.com/fr/location-ski/parameters/262?referer=skiquality.com"},{"id":"4876","name":"Precision Ski Ski Dream","lat":45.09639,"lng":6.06949,"address":"69 rue du Pic Blanc","website":"https://www.alpy.com/fr/location-ski/parameters/4876?referer=skiquality.com"},{"id":"261","name":"Ours Blanc","lat":45.090641,"lng":6.067699,"address":"Galerie de l'Ours Blanc","website":"https://www.alpy.com/fr/location-ski/parameters/261?referer=skiquality.com"},{"id":"1550","name":"L'Eclose","lat":45.087688,"lng":6.06825,"address":"Résidence les 4 Soleils, Rue du 93e R.A.M.","website":"https://www.alpy.com/fr/location-ski/parameters/1550?referer=skiquality.com"},{"id":"266","name":"Jeannot Sports","lat":45.096218,"lng":6.070747,"address":"Chalet les Cabris - 7, rue de Fontbelle","website":"https://www.alpy.com/fr/location-ski/parameters/266?referer=skiquality.com"},{"id":"4633","name":"Ekosport-rent Ze Shop 1","lat":45.090689,"lng":6.064571,"address":"Place Joseph Paganon","website":"https://www.alpy.com/fr/location-ski/parameters/4633?referer=skiquality.com"},{"id":"4320","name":"Ekosport-rent Les Bergers","lat":45.090019,"lng":6.07642,"address":"Centre commercial des Berger, 38750 Huez","website":"https://www.alpy.com/fr/location-ski/parameters/4320?referer=skiquality.com"},{"id":"4691","name":"Ekosport-rent Hors Piste","lat":45.095933,"lng":6.069973,"address":"22 Place Maurice Rajon","website":"https://www.alpy.com/fr/location-ski/parameters/4691?referer=skiquality.com"},{"id":"265","name":"Cornerski","lat":45.095928,"lng":6.06953,"address":"Place du Cognet - Immeuble le Caren","website":"https://www.alpy.com/fr/location-ski/parameters/265?referer=skiquality.com"},{"id":"2204","name":"Concept","lat":45.089916,"lng":6.076174,"address":"Centre commercial des Bergers","website":"https://www.alpy.com/fr/location-ski/parameters/2204?referer=skiquality.com"},{"id":"260","name":"Centre Station","lat":45.093735,"lng":6.067753,"address":"Route du Signal (Centre Station)","website":"https://www.alpy.com/fr/location-ski/parameters/260?referer=skiquality.com"}]},"areches-beaufort":{"name":"Arêches-Beaufort ","center":[45.686714,6.56872],"zoom":13,"shops":[{"id":"315","name":"Avocat Sport","lat":45.686714,"lng":6.56872,"address":"404 rue Léontine Vibert  ARECHES","website":"https://www.alpy.com/fr/location-ski/parameters/315?referer=skiquality.com"}]},"argentiere":{"name":"Argentière ","center":[45.980988,6.925308],"zoom":13,"shops":[{"id":"1228","name":"Stamos Sports","lat":45.980988,"lng":6.925308,"address":"Centre Commercial Grand Roc","website":"https://www.alpy.com/fr/location-ski/parameters/1228?referer=skiquality.com"}]},"auris-en-oisans":{"name":"Auris-en-Oisans ","center":[45.056141,6.078209],"zoom":13,"shops":[{"id":"4308","name":"Ekosport-rent Auris Ski","lat":45.056141,"lng":6.078209,"address":"Résidence Odalys - Zac des Orgières, Les Orgières","website":"https://www.alpy.com/fr/location-ski/parameters/4308?referer=skiquality.com"}]},"auron":{"name":"Auron ","center":[44.22556,6.931408],"zoom":13,"shops":[{"id":"3857","name":"Ski Republic Centre Station White Spirit","lat":44.224846,"lng":6.932863,"address":"Immeuble l'Annapurna Boulevard Georges Pompidou - Place d'Auron","website":"https://www.alpy.com/fr/location-ski/parameters/3857?referer=skiquality.com"},{"id":"2209","name":"Georges Sport","lat":44.225307,"lng":6.931786,"address":"Place centrale","website":"https://www.alpy.com/fr/location-ski/parameters/2209?referer=skiquality.com"},{"id":"1872","name":"Flow Sport","lat":44.22683,"lng":6.929572,"address":"Boulevard Georges Pompidou - Centre Station","website":"https://www.alpy.com/fr/location-ski/parameters/1872?referer=skiquality.com"},{"id":"1871","name":"Adventmount","lat":44.225258,"lng":6.931409,"address":"Place du centre - Auron","website":"https://www.alpy.com/fr/location-ski/parameters/1871?referer=skiquality.com"}]},"aussois":{"name":"Aussois","center":[45.230091,6.7411],"zoom":13,"shops":[{"id":"316","name":"Aussois Sports","lat":45.230091,"lng":6.7411,"address":"20 Bis Rue En Haut","website":"https://www.alpy.com/fr/location-ski/parameters/316?referer=skiquality.com"}]},"avoriaz":{"name":"Avoriaz ","center":[46.191722,6.776337],"zoom":13,"shops":[{"id":"2305","name":"Ski Republic Centre Station Pelen Sport","lat":46.190861,"lng":6.77705,"address":"Immeuble les Portes du Soleil","website":"https://www.alpy.com/fr/location-ski/parameters/2305?referer=skiquality.com"},{"id":"1483","name":"Les Fontaines Blanches","lat":46.192184,"lng":6.775603,"address":"7, Promenade du Festival","website":"https://www.alpy.com/fr/location-ski/parameters/1483?referer=skiquality.com"},{"id":"3574","name":"Le 720","lat":46.191,"lng":6.77691,"address":"55, place Centrale","website":"https://www.alpy.com/fr/location-ski/parameters/3574?referer=skiquality.com"},{"id":"4811","name":"Ekosport-Rent Antoine Ski","lat":46.19179,"lng":6.776506,"address":"139 Promenade du Festival","website":"https://www.alpy.com/fr/location-ski/parameters/4811?referer=skiquality.com"},{"id":"2541","name":"Crozats Sports","lat":46.19245,"lng":6.77615,"address":"135 Quartier des crozats - BELAMBRA - Les Alpages","website":"https://www.alpy.com/fr/location-ski/parameters/2541?referer=skiquality.com"},{"id":"3308","name":"7 Place Centrale","lat":46.191457,"lng":6.777041,"address":"7, place Centrale","website":"https://www.alpy.com/fr/location-ski/parameters/3308?referer=skiquality.com"},{"id":"3571","name":"360 Skishop","lat":46.19231,"lng":6.7751,"address":"33 promenade du Festival","website":"https://www.alpy.com/fr/location-ski/parameters/3571?referer=skiquality.com"}]},"bernex":{"name":"Bernex","center":[46.356995,6.689366],"zoom":13,"shops":[{"id":"191","name":"Super Bernex Sport","lat":46.356995,"lng":6.689366,"address":"1155 route du télésiège","website":"https://www.alpy.com/fr/location-ski/parameters/191?referer=skiquality.com"}]},"bessans":{"name":"Bessans ","center":[45.322346,6.998825],"zoom":13,"shops":[{"id":"317","name":"Tracq Sports","lat":45.322346,"lng":6.998825,"address":"Rue Saint Etienne","website":"https://www.alpy.com/fr/location-ski/parameters/317?referer=skiquality.com"}]},"brides-les-bains":{"name":"Brides-les-Bains ","center":[45.452077,6.585603],"zoom":13,"shops":[{"id":"5015","name":"Wocan Delivery - Feissons-sur-salins","lat":45.47054,"lng":6.56061,"address":"Hotel-Shop-Shuttle-Service","website":"https://www.alpy.com/fr/location-ski/parameters/5015?referer=skiquality.com"},{"id":"4258","name":"Télécabine de l'Olympe","lat":45.45055,"lng":6.56578,"address":"Route de l'Olympe","website":"https://www.alpy.com/fr/location-ski/parameters/4258?referer=skiquality.com"},{"id":"1526","name":"Résidence les Cybèles","lat":45.453568,"lng":6.562378,"address":"Résidence Cybèle","website":"https://www.alpy.com/fr/location-ski/parameters/1526?referer=skiquality.com"},{"id":"2169","name":"Precision Ski Brides les Bains","lat":45.452339,"lng":6.56691,"address":"Rue Emile Machet","website":"https://www.alpy.com/fr/location-ski/parameters/2169?referer=skiquality.com"},{"id":"1932","name":"Happy Mountains","lat":45.452744,"lng":6.565202,"address":"39 Rue Aristide Briand","website":"https://www.alpy.com/fr/location-ski/parameters/1932?referer=skiquality.com"},{"id":"4259","name":"Centre Station","lat":45.452259,"lng":6.56727,"address":"rue Emile Machet","website":"https://www.alpy.com/fr/location-ski/parameters/4259?referer=skiquality.com"},{"id":"320","name":"La Cage O Sport","lat":45.442226,"lng":6.647715,"address":"Les Soldanelles","website":"https://www.alpy.com/fr/location-ski/parameters/320?referer=skiquality.com"},{"id":"4688","name":"Ekosport-rent Les Luges a Foin","lat":45.442393,"lng":6.648956,"address":"10 rue Jean Jaurès 73350 Bozel","website":"https://www.alpy.com/fr/location-ski/parameters/4688?referer=skiquality.com"}]},"chamonix-mont-blanc":{"name":"Chamonix Mont-Blanc ","center":[45.9285,6.876236],"zoom":13,"shops":[{"id":"2215","name":"SPORT 2000 La Ginabelle Centre","lat":45.923855,"lng":6.873011,"address":"120, place du poilu","website":"https://www.alpy.com/fr/location-ski/parameters/2215?referer=skiquality.com"},{"id":"4660","name":"Sport 2000 Cham'Sport Michel Croz Centre","lat":45.92314,"lng":6.87188,"address":"168 avenue Michel Croz","website":"https://www.alpy.com/fr/location-ski/parameters/4660?referer=skiquality.com"},{"id":"2314","name":"Ski Republic Centre Station Technique Extrême","lat":45.919411,"lng":6.86882,"address":"200 avenue de l'Aiguille du Midi","website":"https://www.alpy.com/fr/location-ski/parameters/2314?referer=skiquality.com"},{"id":"1274","name":"O74 (Aiguille du Midi)","lat":45.918461,"lng":6.868906,"address":"92, place Edmond Desailloud","website":"https://www.alpy.com/fr/location-ski/parameters/1274?referer=skiquality.com"},{"id":"1229","name":"Location des Planards","lat":45.924191,"lng":6.879065,"address":"350 Chemin pied du Grépon - Piste des planards","website":"https://www.alpy.com/fr/location-ski/parameters/1229?referer=skiquality.com"},{"id":"4793","name":"Ekosport-Rent Skimax","lat":45.976148,"lng":6.921754,"address":"34 Chemin des Arberons","website":"https://www.alpy.com/fr/location-ski/parameters/4793?referer=skiquality.com"},{"id":"4810","name":"Ekosport-Rent O'Centre","lat":45.923487,"lng":6.8693,"address":"23 Place de l'église","website":"https://www.alpy.com/fr/location-ski/parameters/4810?referer=skiquality.com"},{"id":"2217","name":"Cham'sport Savoy","lat":45.927162,"lng":6.870329,"address":"432, Rue Joseph Vallot","website":"https://www.alpy.com/fr/location-ski/parameters/2217?referer=skiquality.com"},{"id":"2572","name":"Cham'sport Mummery Le Paradis","lat":45.925484,"lng":6.869435,"address":"28, impasse des primevères","website":"https://www.alpy.com/fr/location-ski/parameters/2572?referer=skiquality.com"},{"id":"2103","name":"4810 By Pitte","lat":45.92366,"lng":6.86986,"address":"12 avenue Michel CROZ","website":"https://www.alpy.com/fr/location-ski/parameters/2103?referer=skiquality.com"}]},"champagny-en-vanoise":{"name":"Champagny-en-Vanoise ","center":[45.455883,6.694217],"zoom":13,"shops":[{"id":"4719","name":"Wocan Delivery - Champagny en Vanoise","lat":45.45571,"lng":6.69387,"address":"Hotel-Shop-Shuttle-Service","website":"https://www.alpy.com/fr/location-ski/parameters/4719?referer=skiquality.com"},{"id":"322","name":"Belvédère Sports","lat":45.455296,"lng":6.694888,"address":"Le Crey","website":"https://www.alpy.com/fr/location-ski/parameters/322?referer=skiquality.com"},{"id":"4042","name":"Alpina Ski Shop","lat":45.456642,"lng":6.693892,"address":"Batiment Club Alpina - Rue des Hauts du Crey","website":"https://www.alpy.com/fr/location-ski/parameters/4042?referer=skiquality.com"}]},"chamrousse":{"name":"Chamrousse","center":[45.118538,5.877771],"zoom":13,"shops":[{"id":"2348","name":"We Ski","lat":45.113586,"lng":5.878688,"address":"733 Route de la croisette","website":"https://www.alpy.com/fr/location-ski/parameters/2348?referer=skiquality.com"},{"id":"4025","name":"Jean François Sport","lat":45.126575,"lng":5.878159,"address":"76, Avenue Henry Duhamel","website":"https://www.alpy.com/fr/location-ski/parameters/4025?referer=skiquality.com"},{"id":"4330","name":"Ekosport-rent Le QG","lat":45.124866,"lng":5.878259,"address":"49 Rue des Gentianes, Le Recoin","website":"https://www.alpy.com/fr/location-ski/parameters/4330?referer=skiquality.com"},{"id":"3832","name":"Ski Republic Centre Station Le Camp de Base","lat":45.109123,"lng":5.875978,"address":"480 Avenue du père Tasse, Roche Béranger","website":"https://www.alpy.com/fr/location-ski/parameters/3832?referer=skiquality.com"}]},"chatel":{"name":"Châtel ","center":[46.264589,6.835878],"zoom":13,"shops":[{"id":"4074","name":"Ski Republic Centre Station l'Atelier du Ski","lat":46.272591,"lng":6.83863,"address":"608 Route de Thonon","website":"https://www.alpy.com/fr/location-ski/parameters/4074?referer=skiquality.com"},{"id":"198","name":"Germain Sports (Linga)","lat":46.255932,"lng":6.823463,"address":"184 Route de Pré-le-Joux - Le Linga - à côté du restaurant \"La Ripaille","website":"https://www.alpy.com/fr/location-ski/parameters/198?referer=skiquality.com"},{"id":"197","name":"Germain Sports (Centre Station)","lat":46.267208,"lng":6.841962,"address":"19 Chemin sous le Crêt - Centre station (derrière la \"Boulangerie GRILLET\")","website":"https://www.alpy.com/fr/location-ski/parameters/197?referer=skiquality.com"},{"id":"2464","name":"Daniel Cruz Sports","lat":46.262623,"lng":6.839455,"address":"234, chemin de l'Etringa","website":"https://www.alpy.com/fr/location-ski/parameters/2464?referer=skiquality.com"}]},"combloux":{"name":"Combloux ","center":[45.892246,6.62494],"zoom":13,"shops":[{"id":"199","name":"Marin Sports les Pistes","lat":45.892246,"lng":6.62494,"address":"2804 route de la cry cuchet - Pied des Pistes","website":"https://www.alpy.com/fr/location-ski/parameters/199?referer=skiquality.com"}]},"courchevel":{"name":"Courchevel ","center":[45.418059,6.639987],"zoom":13,"shops":[{"id":"326","name":"White Storm 1850","lat":45.415291,"lng":6.635853,"address":"Place du Rocher","website":"https://www.alpy.com/fr/location-ski/parameters/326?referer=skiquality.com"},{"id":"3220","name":"Le Camp de Base - Sarl Technic","lat":45.415848,"lng":6.630892,"address":"Le Forum - Niveau 0 - magasin Le Camp de Base","website":"https://www.alpy.com/fr/location-ski/parameters/3220?referer=skiquality.com"},{"id":"4332","name":"White Storm Ariondaz","lat":45.411472,"lng":6.64837,"address":"Rue de l'Ariondaz","website":"https://www.alpy.com/fr/location-ski/parameters/4332?referer=skiquality.com"},{"id":"1234","name":"Ski Plus (La Résidence)","lat":45.417179,"lng":6.650583,"address":"Immeuble la Résidence","website":"https://www.alpy.com/fr/location-ski/parameters/1234?referer=skiquality.com"},{"id":"2173","name":"Precision Ski Moriond","lat":45.415401,"lng":6.65079,"address":"Immeuble de l'Ourse Bleue, Route de Courchevel 1850,","website":"https://www.alpy.com/fr/location-ski/parameters/2173?referer=skiquality.com"},{"id":"323","name":"Sport 2000 White Storm 1300","lat":45.433163,"lng":6.623432,"address":"Immeuble \"l'Or Blanc\" - Le Praz","website":"https://www.alpy.com/fr/location-ski/parameters/323?referer=skiquality.com"}]},"crest-voland-cohennoz":{"name":"Crest-Voland Cohennoz ","center":[45.794403,6.505034],"zoom":13,"shops":[{"id":"328","name":"Dumoulin Sports","lat":45.794403,"lng":6.505034,"address":"51 chemin des skieurs","website":"https://www.alpy.com/fr/location-ski/parameters/328?referer=skiquality.com"}]},"flaine":{"name":"Flaine ","center":[46.006846,6.686799],"zoom":13,"shops":[{"id":"1867","name":"Ski Shop","lat":46.008549,"lng":6.674303,"address":"Résidence Les Portes du Grand Massif","website":"https://www.alpy.com/fr/location-ski/parameters/1867?referer=skiquality.com"},{"id":"202","name":"Flaine Super Ski (Forum)","lat":46.004704,"lng":6.695461,"address":"Immeuble Aldebaran","website":"https://www.alpy.com/fr/location-ski/parameters/202?referer=skiquality.com"},{"id":"201","name":"Flaine Super Ski (Forêt)","lat":46.007286,"lng":6.690632,"address":"Galerie Marchande - Flaine Forêt","website":"https://www.alpy.com/fr/location-ski/parameters/201?referer=skiquality.com"}]},"font-romeu":{"name":"Font Romeu","center":[45.37222,4.449377],"zoom":13,"shops":[{"id":"307","name":"Sylbe Sports","lat":48.01748,"lng":7.062695,"address":"Place du Stade","website":"https://www.alpy.com/fr/location-ski/parameters/307?referer=skiquality.com"},{"id":"309","name":"Sports Mountains","lat":48.01748,"lng":7.062695,"address":"Pied des pistes","website":"https://www.alpy.com/fr/location-ski/parameters/309?referer=skiquality.com"},{"id":"4667","name":"Ski Republic Ecobike Sport Shop","lat":42.72696,"lng":1.83606,"address":"Centre Station","website":"https://www.alpy.com/fr/location-ski/parameters/4667?referer=skiquality.com"},{"id":"5031","name":"Ekosport-Rent Le Local","lat":42.72696,"lng":1.83606,"address":"Centre Station","website":"https://www.alpy.com/fr/location-ski/parameters/5031?referer=skiquality.com"}]},"hauteluce-val-joly":{"name":"Hauteluce Val Joly ","center":[45.757641,6.540416],"zoom":13,"shops":[{"id":"4785","name":"Ekosport-Rent Le Skishop","lat":45.757641,"lng":6.540416,"address":"10 Avenue des Cimes, Les Saisies","website":"https://www.alpy.com/fr/location-ski/parameters/4785?referer=skiquality.com"}]},"isola2000":{"name":"Isola2000","center":[44.184871,7.159823],"zoom":13,"shops":[{"id":"2375","name":"Snow Shop","lat":44.184612,"lng":7.1606,"address":"Front de neige - Immeuble Tavels","website":"https://www.alpy.com/fr/location-ski/parameters/2375?referer=skiquality.com"},{"id":"2319","name":"Ski Republic Le Chastillon Magic Snow","lat":44.185505,"lng":7.158427,"address":"Immeuble la Lombarde","website":"https://www.alpy.com/fr/location-ski/parameters/2319?referer=skiquality.com"},{"id":"179","name":"Quartz Sport","lat":44.184753,"lng":7.159667,"address":"Le Saint Pierre  Galerie Marchande","website":"https://www.alpy.com/fr/location-ski/parameters/179?referer=skiquality.com"},{"id":"4802","name":"Ekosport-Rent Ski Service","lat":44.184614,"lng":7.1606,"address":"Le Tavels Front de Neige, Galerie Marchande","website":"https://www.alpy.com/fr/location-ski/parameters/4802?referer=skiquality.com"}]},"la-chapelle-dabondance":{"name":"La Chapelle-d'Abondance ","center":[46.296131,6.786538],"zoom":13,"shops":[{"id":"2320","name":"Ski Republic Centre Village Les Rappes Sports","lat":46.296131,"lng":6.786538,"address":"130 Route de Chevenne","website":"https://www.alpy.com/fr/location-ski/parameters/2320?referer=skiquality.com"}]},"la-clusaz":{"name":"La Clusaz ","center":[45.905421,6.426665],"zoom":13,"shops":[{"id":"4877","name":"Ski Republic Araviski","lat":45.90619,"lng":6.42961,"address":"30 place de la Perrière","website":"https://www.alpy.com/fr/location-ski/parameters/4877?referer=skiquality.com"},{"id":"3086","name":"Passion Glisse","lat":45.904655,"lng":6.424393,"address":"6 Place Yves Pollet Villard - Résidence du centre","website":"https://www.alpy.com/fr/location-ski/parameters/3086?referer=skiquality.com"},{"id":"4809","name":"Ekosport-Rent Versant Est","lat":45.905038,"lng":6.42499,"address":"24 place du Petit Casino","website":"https://www.alpy.com/fr/location-ski/parameters/4809?referer=skiquality.com"},{"id":"3726","name":"Au Sportif","lat":45.905121,"lng":6.424693,"address":"47, route du col des Aravis","website":"https://www.alpy.com/fr/location-ski/parameters/3726?referer=skiquality.com"},{"id":"4750","name":"Alpine ride","lat":45.9061,"lng":6.42964,"address":"461 Route du Col des Aravis","website":"https://www.alpy.com/fr/location-ski/parameters/4750?referer=skiquality.com"}]},"la-joue-du-loup":{"name":"La Joue du Loup ","center":[44.687748,5.892721],"zoom":13,"shops":[{"id":"2322","name":"Ski Republic Centre Station V8 Shop","lat":44.687748,"lng":5.892721,"address":"La Joue du Loup","website":"https://www.alpy.com/fr/location-ski/parameters/2322?referer=skiquality.com"}]},"la-norma":{"name":"La Norma ","center":[45.201309,6.69669],"zoom":13,"shops":[{"id":"4315","name":"Ekosport-rent La Cabane a Ski","lat":45.201309,"lng":6.69669,"address":"Bâtiment  la Norma Le Village 73500 Villarodin-Bourget","website":"https://www.alpy.com/fr/location-ski/parameters/4315?referer=skiquality.com"}]},"la-plagne":{"name":"La Plagne ","center":[45.527079,6.692789],"zoom":13,"shops":[{"id":"4739","name":"Wocan Delivery - Macot","lat":45.55391,"lng":6.67317,"address":"Hotel-Shop-Shuttle-Service","website":"https://www.alpy.com/fr/location-ski/parameters/4739?referer=skiquality.com"},{"id":"4899","name":"Wocan Delivery - Le Villard (La Plagne)","lat":45.57758,"lng":6.74683,"address":"Hotel-Shop-Shuttle-Service","website":"https://www.alpy.com/fr/location-ski/parameters/4899?referer=skiquality.com"},{"id":"336","name":"Pierre Leroux Sports","lat":45.505955,"lng":6.684053,"address":"Centre Commercial - PLAGNE VILLAGES","website":"https://www.alpy.com/fr/location-ski/parameters/336?referer=skiquality.com"},{"id":"4713","name":"Wocan Delivery - Plagne Soleil","lat":45.50853,"lng":6.68621,"address":"Hotel-Shop-Shuttle-Service","website":"https://www.alpy.com/fr/location-ski/parameters/4713?referer=skiquality.com"},{"id":"2714","name":"Oxygene ski shop","lat":45.508099,"lng":6.686602,"address":"Hotel-Shop-Shuttle-Service","website":"https://www.alpy.com/fr/location-ski/parameters/2714?referer=skiquality.com"},{"id":"3192","name":"Oxygene ski shop","lat":45.523918,"lng":6.675903,"address":"Hotel-Shop-Shuttle-Service","website":"https://www.alpy.com/fr/location-ski/parameters/3192?referer=skiquality.com"},{"id":"4351","name":"Ski Shop Les Coches Sportshop Paradiski","lat":45.554901,"lng":6.727358,"address":"Place des commerces","website":"https://www.alpy.com/fr/location-ski/parameters/4351?referer=skiquality.com"},{"id":"4204","name":"Ski Republic Les Coches- Wengen","lat":45.554909,"lng":6.72732,"address":"place des Commerces","website":"https://www.alpy.com/fr/location-ski/parameters/4204?referer=skiquality.com"},{"id":"2308","name":"Ski Republic Les Coches Centre","lat":45.554893,"lng":6.727326,"address":"Immeuble le Trompe l'oeil, 6 route des jeux, Place des Commerces","website":"https://www.alpy.com/fr/location-ski/parameters/2308?referer=skiquality.com"},{"id":"2177","name":"Ski Republic Les Ecrins","lat":45.506538,"lng":6.67602,"address":"Centre Commercial Les Ecrins, 73210 Plagne Centre","website":"https://www.alpy.com/fr/location-ski/parameters/2177?referer=skiquality.com"},{"id":"333","name":"Robino 3R","lat":45.505638,"lng":6.67581,"address":"Galerie Mercure","website":"https://www.alpy.com/fr/location-ski/parameters/333?referer=skiquality.com"},{"id":"2716","name":"Oxygene ski shop","lat":45.505604,"lng":6.675867,"address":"Oxygène La Plagne – BP46 Immeuble l'Orée des Pistes –","website":"https://www.alpy.com/fr/location-ski/parameters/2716?referer=skiquality.com"},{"id":"4745","name":"Wocan Delivery - Bellentre","lat":45.56958,"lng":6.71339,"address":"Hotel-Shop-Shuttle-Service","website":"https://www.alpy.com/fr/location-ski/parameters/4745?referer=skiquality.com"},{"id":"4707","name":"Wocan Delivery - Plagne Bellecôte","lat":45.51325,"lng":6.69794,"address":"Hotel-Shop-Shuttle-Service","website":"https://www.alpy.com/fr/location-ski/parameters/4707?referer=skiquality.com"},{"id":"2178","name":"Ski Republic Plagne Bellecote Centre","lat":45.51305,"lng":6.697504,"address":"Centre Commercial Bellecote, 73210 La Plagne-Tarentaise","website":"https://www.alpy.com/fr/location-ski/parameters/2178?referer=skiquality.com"},{"id":"332","name":"Plagne Ski Bellecôte","lat":45.513321,"lng":6.699361,"address":"Résidence 3000","website":"https://www.alpy.com/fr/location-ski/parameters/332?referer=skiquality.com"},{"id":"331","name":"Armand Berard Sports","lat":45.507198,"lng":6.707617,"address":"Galerie Commerciale","website":"https://www.alpy.com/fr/location-ski/parameters/331?referer=skiquality.com"},{"id":"4715","name":"Wocan Delivery - Plagne Aime 2000","lat":45.51091,"lng":6.66704,"address":"Hotel-Shop-Shuttle-Service","website":"https://www.alpy.com/fr/location-ski/parameters/4715?referer=skiquality.com"},{"id":"337","name":"Plagne 1800 Sports","lat":45.511299,"lng":6.677492,"address":"Départ des pistes","website":"https://www.alpy.com/fr/location-ski/parameters/337?referer=skiquality.com"},{"id":"4306","name":"Ekosport-rent Les Chalets","lat":45.513939,"lng":6.677187,"address":"Chalet Astier Plagne","website":"https://www.alpy.com/fr/location-ski/parameters/4306?referer=skiquality.com"},{"id":"4731","name":"Wocan Delivery - Aime la plagne","lat":45.55563,"lng":6.64856,"address":"Hotel-Shop-Shuttle-Service","website":"https://www.alpy.com/fr/location-ski/parameters/4731?referer=skiquality.com"}]},"la-plagne-montalbert":{"name":"La Plagne Montalbert ","center":[45.534817,6.636473],"zoom":13,"shops":[{"id":"4703","name":"Wocan Delivery - Montalbert","lat":45.53506,"lng":6.63723,"address":"Hotel-Shop-Shuttle-Service","website":"https://www.alpy.com/fr/location-ski/parameters/4703?referer=skiquality.com"},{"id":"1257","name":"Sport Passion 73","lat":45.534573,"lng":6.635716,"address":"Immeuble Genepy Montalbert","website":"https://www.alpy.com/fr/location-ski/parameters/1257?referer=skiquality.com"}]},"la-rosiere":{"name":"La Rosière ","center":[45.626157,6.857793],"zoom":13,"shops":[{"id":"2231","name":"Precision Ski Les Eucherts - Surf Ski Shop","lat":45.625587,"lng":6.862517,"address":"Résidence les Balcons de la Rosière, Centre des Eucherts","website":"https://www.alpy.com/fr/location-ski/parameters/2231?referer=skiquality.com"},{"id":"4206","name":"Precision Ski Les Eucherts - Alparena Ski Shop","lat":45.625832,"lng":6.862402,"address":"Quartier de l'Averne, Les Eucherts","website":"https://www.alpy.com/fr/location-ski/parameters/4206?referer=skiquality.com"},{"id":"2183","name":"Precision ski La Rosière - Centre","lat":45.626858,"lng":6.849916,"address":"Résidences Les Vertes Années 73700 La Rosière Montvalezan","website":"https://www.alpy.com/fr/location-ski/parameters/2183?referer=skiquality.com"},{"id":"4115","name":"Les Cimes Blanches","lat":45.625961,"lng":6.860297,"address":"Résidence Les Cimes Blanches","website":"https://www.alpy.com/fr/location-ski/parameters/4115?referer=skiquality.com"},{"id":"339","name":"L'Appart","lat":45.626759,"lng":6.850628,"address":"Centre station La Rosière","website":"https://www.alpy.com/fr/location-ski/parameters/339?referer=skiquality.com"},{"id":"4307","name":"Ekosport-rent Sport Service","lat":45.625542,"lng":6.863979,"address":"Les Eucherts","website":"https://www.alpy.com/fr/location-ski/parameters/4307?referer=skiquality.com"},{"id":"338","name":"Arpin Sport","lat":45.627254,"lng":6.849843,"address":"Centre station La Rosière","website":"https://www.alpy.com/fr/location-ski/parameters/338?referer=skiquality.com"},{"id":"4023","name":"Alpen Ski Shop","lat":45.625465,"lng":6.862761,"address":"Les Eucherts - Résidence Alpen Lodge","website":"https://www.alpy.com/fr/location-ski/parameters/4023?referer=skiquality.com"}]},"la-tania":{"name":"La Tania","center":[45.431518,6.59571],"zoom":13,"shops":[{"id":"4291","name":"Ski Higher La Tania","lat":45.431374,"lng":6.595878,"address":"Immeuble le Grand Bois","website":"https://www.alpy.com/fr/location-ski/parameters/4291?referer=skiquality.com"},{"id":"1415","name":"Les Folyères La Tania","lat":45.431805,"lng":6.595375,"address":"Centre station/Rés. Les Folyères","website":"https://www.alpy.com/fr/location-ski/parameters/1415?referer=skiquality.com"},{"id":"4344","name":"Ekosport-rent Ski Higher La Tania","lat":45.431374,"lng":6.595878,"address":"Immeuble le Grand Bois","website":"https://www.alpy.com/fr/location-ski/parameters/4344?referer=skiquality.com"}]},"la-toussuire":{"name":"La Toussuire ","center":[45.25684,6.258363],"zoom":13,"shops":[{"id":"4327","name":"Ekosport-rent Le Floral","lat":45.25684,"lng":6.258363,"address":"Chalet Le Floral","website":"https://www.alpy.com/fr/location-ski/parameters/4327?referer=skiquality.com"}]},"le-corbier":{"name":"Le Corbier ","center":[45.23932,6.270356],"zoom":13,"shops":[{"id":"2190","name":"Ski Republic Les Alpages","lat":45.236832,"lng":6.27391,"address":"Résidence Odalys les Alpages du Corbier-Lieu-dit Au Saut Villarembert","website":"https://www.alpy.com/fr/location-ski/parameters/2190?referer=skiquality.com"},{"id":"2233","name":"Ski Republic Front De Neige BC Sports","lat":45.239986,"lng":6.269229,"address":"Immeuble Charvin, Galerie de la Piscine","website":"https://www.alpy.com/fr/location-ski/parameters/2233?referer=skiquality.com"},{"id":"2098","name":"La Poudreuse Corbier","lat":45.239021,"lng":6.271792,"address":"Immeuble le Pégase Phénix","website":"https://www.alpy.com/fr/location-ski/parameters/2098?referer=skiquality.com"},{"id":"348","name":"Ariane","lat":45.240166,"lng":6.268644,"address":"Immeuble Ariane","website":"https://www.alpy.com/fr/location-ski/parameters/348?referer=skiquality.com"},{"id":"2388","name":"Apollo","lat":45.240597,"lng":6.268206,"address":"Immeuble Apollo - Centre station - Front de neige","website":"https://www.alpy.com/fr/location-ski/parameters/2388?referer=skiquality.com"}]},"le-devoluy":{"name":"Super Devoluy","center":[44.453763,6.035963],"zoom":13,"shops":[{"id":"2390","name":"Ski Republic Front De Neige All Ski Rent","lat":44.463527,"lng":6.058386,"address":"Front de Neige","website":"https://www.alpy.com/fr/location-ski/parameters/2390?referer=skiquality.com"},{"id":"255","name":"Altiski (Issarts)","lat":44.463527,"lng":6.058386,"address":"Le Bois Noir","website":"https://www.alpy.com/fr/location-ski/parameters/255?referer=skiquality.com"},{"id":"1223","name":"Altiski (Aurouze)","lat":44.434235,"lng":5.991116,"address":"Aurouze","website":"https://www.alpy.com/fr/location-ski/parameters/1223?referer=skiquality.com"}]},"le-grand-bornand":{"name":"Le Grand-Bornand ","center":[45.953227,6.442172],"zoom":13,"shops":[{"id":"1233","name":"Ski Shop","lat":45.974934,"lng":6.457652,"address":"7241, Route du Chinaillon","website":"https://www.alpy.com/fr/location-ski/parameters/1233?referer=skiquality.com"},{"id":"2324","name":"Ski Republic Parking des Télécabines Sport Alp","lat":45.941776,"lng":6.439629,"address":"17 Chemin de Suize, Route du Bouchet","website":"https://www.alpy.com/fr/location-ski/parameters/2324?referer=skiquality.com"},{"id":"1873","name":"Antonin Sports","lat":45.94297,"lng":6.429235,"address":"89 Route de la Vallée du Bouchet (Route du télécabine)","website":"https://www.alpy.com/fr/location-ski/parameters/1873?referer=skiquality.com"}]},"les-2-alpes":{"name":"Les 2 Alpes ","center":[45.012722,6.124961],"zoom":13,"shops":[{"id":"2306","name":"Ski Republic Hors Limites","lat":45.006073,"lng":6.121573,"address":"1 rue du Cairou","website":"https://www.alpy.com/fr/location-ski/parameters/2306?referer=skiquality.com"},{"id":"4350","name":"Milou Sports","lat":45.004818,"lng":6.12235,"address":"126, avenue de la Muzelle","website":"https://www.alpy.com/fr/location-ski/parameters/4350?referer=skiquality.com"},{"id":"281","name":"La Skirie","lat":45.012497,"lng":6.125024,"address":"70 Avenue de la Muzelle - L'Eperon","website":"https://www.alpy.com/fr/location-ski/parameters/281?referer=skiquality.com"},{"id":"279","name":"Jacques Sports","lat":45.005718,"lng":6.124693,"address":"11 Rue des Vikings - Immeuble 3300","website":"https://www.alpy.com/fr/location-ski/parameters/279?referer=skiquality.com"},{"id":"4292","name":"Gravier Sports","lat":45.019802,"lng":6.123421,"address":"7, Avenue de la Muzelle","website":"https://www.alpy.com/fr/location-ski/parameters/4292?referer=skiquality.com"},{"id":"1870","name":"Fl Sport les Deux Alpes","lat":45.017689,"lng":6.130067,"address":"Hameau de la  Meije -  Le  Village1800","website":"https://www.alpy.com/fr/location-ski/parameters/1870?referer=skiquality.com"},{"id":"4022","name":"Ekosport-Rent Les 2 Skis","lat":45.015202,"lng":6.124939,"address":"34 Avenue de la Muzelle - Résidence Neige Soleil - Entrée station","website":"https://www.alpy.com/fr/location-ski/parameters/4022?referer=skiquality.com"},{"id":"4317","name":"Ekosport-rent La Skirie 2","lat":45.01247,"lng":6.12499,"address":"70 avenue de la Muzelle","website":"https://www.alpy.com/fr/location-ski/parameters/4317?referer=skiquality.com"},{"id":"4314","name":"Ekosport-rent L'Atelier","lat":45.018429,"lng":6.130221,"address":"Grande place - BP 31","website":"https://www.alpy.com/fr/location-ski/parameters/4314?referer=skiquality.com"},{"id":"4343","name":"Ekosport-rent Gravier Sports","lat":45.019802,"lng":6.123421,"address":"7, Avenue de la Muzelle","website":"https://www.alpy.com/fr/location-ski/parameters/4343?referer=skiquality.com"},{"id":"4313","name":"Ekosport-rent Camp d'Base","lat":45.005219,"lng":6.12428,"address":"7 Rue des Vikings","website":"https://www.alpy.com/fr/location-ski/parameters/4313?referer=skiquality.com"},{"id":"4806","name":"Chalvin Sports","lat":45.014945,"lng":6.124553,"address":"34 avenue de la Muzelle","website":"https://www.alpy.com/fr/location-ski/parameters/4806?referer=skiquality.com"}]},"les-7-laux":{"name":"Les 7 Laux ","center":[45.256653,5.994876],"zoom":13,"shops":[{"id":"276","name":"Technisport","lat":45.256645,"lng":5.994861,"address":"Les Adrets","website":"https://www.alpy.com/fr/location-ski/parameters/276?referer=skiquality.com"},{"id":"4311","name":"Ekosport-rent Locaski","lat":45.25666,"lng":5.99489,"address":"Immeuble L'Agnelin Lieu-dit, 38190 Les Adrets","website":"https://www.alpy.com/fr/location-ski/parameters/4311?referer=skiquality.com"}]},"les-arcs":{"name":"Les Arcs ","center":[45.581567,6.786201],"zoom":13,"shops":[{"id":"4735","name":"Wocan Delivery - Séez","lat":45.62206,"lng":6.80087,"address":"Hotel-Shop-Shuttle-Service","website":"https://www.alpy.com/fr/location-ski/parameters/4735?referer=skiquality.com"},{"id":"4696","name":"Wocan Location - Ski Rental","lat":45.575,"lng":6.73618,"address":"496 Avenue de la gare","website":"https://www.alpy.com/fr/location-ski/parameters/4696?referer=skiquality.com"},{"id":"4737","name":"Wocan Delivery - Landry","lat":45.57175,"lng":6.74023,"address":"Hotel-Shop-Shuttle-Service","website":"https://www.alpy.com/fr/location-ski/parameters/4737?referer=skiquality.com"},{"id":"5011","name":"Wocan Delivery - Centron","lat":45.5367,"lng":6.59587,"address":"Hotel-Shop-Shuttle-Service","website":"https://www.alpy.com/fr/location-ski/parameters/5011?referer=skiquality.com"},{"id":"4733","name":"Wocan Delivery - Bourg saint maurice","lat":45.61763,"lng":6.76925,"address":"Hotel-Shop-Shuttle-Service","website":"https://www.alpy.com/fr/location-ski/parameters/4733?referer=skiquality.com"},{"id":"4186","name":"Sports 73","lat":45.6147,"lng":6.7706,"address":"406 route de Montrignon","website":"https://www.alpy.com/fr/location-ski/parameters/4186?referer=skiquality.com"},{"id":"2344","name":"Precision Ski Bourg Saint Maurice - Centre","lat":45.619049,"lng":6.770767,"address":"Mountain Tribu 43, Place de la gare","website":"https://www.alpy.com/fr/location-ski/parameters/2344?referer=skiquality.com"},{"id":"2346","name":"Precision Ski Front de Neige","lat":45.571991,"lng":6.83355,"address":"Place Basse","website":"https://www.alpy.com/fr/location-ski/parameters/2346?referer=skiquality.com"},{"id":"1945","name":"Place Haute","lat":45.571056,"lng":6.832041,"address":"Hotel aiguille rouge  - Place haute","website":"https://www.alpy.com/fr/location-ski/parameters/1945?referer=skiquality.com"},{"id":"1226","name":"Arc 2000 Sport","lat":45.573288,"lng":6.831779,"address":"Chalet de l'ours","website":"https://www.alpy.com/fr/location-ski/parameters/1226?referer=skiquality.com"},{"id":"4725","name":"Wocan Delivery - Arc 1950","lat":45.57338,"lng":6.82661,"address":"Hotel-Shop-Shuttle-Service","website":"https://www.alpy.com/fr/location-ski/parameters/4725?referer=skiquality.com"},{"id":"2158","name":"Ski Republic Spirit","lat":45.572262,"lng":6.8275,"address":"Jardin de la Cascade","website":"https://www.alpy.com/fr/location-ski/parameters/2158?referer=skiquality.com"},{"id":"2157","name":"Ski Freeride - Arcs 1950","lat":45.572266,"lng":6.826667,"address":"Refuge du Montagnard","website":"https://www.alpy.com/fr/location-ski/parameters/2157?referer=skiquality.com"},{"id":"2502","name":"Precision Ski Precision 1950","lat":45.57217,"lng":6.827045,"address":"Résidence Les Hameaux du Glacier B","website":"https://www.alpy.com/fr/location-ski/parameters/2502?referer=skiquality.com"},{"id":"2345","name":"Precision Ski Le Manoir","lat":45.57206,"lng":6.82789,"address":"Résidence Le Manoir de Savoie","website":"https://www.alpy.com/fr/location-ski/parameters/2345?referer=skiquality.com"},{"id":"4727","name":"Wocan Delivery - Arc 1800","lat":45.57566,"lng":6.7805,"address":"Hotel-Shop-Shuttle-Service","website":"https://www.alpy.com/fr/location-ski/parameters/4727?referer=skiquality.com"},{"id":"2154","name":"Precision Ski Villards Place Basse","lat":45.572361,"lng":6.77747,"address":"Centre commercial Aiguilles des Glaciers","website":"https://www.alpy.com/fr/location-ski/parameters/2154?referer=skiquality.com"},{"id":"2155","name":"Precision Ski Galerie du Charvet","lat":45.576305,"lng":6.781115,"address":"Galerie Marchande Pierra Menta","website":"https://www.alpy.com/fr/location-ski/parameters/2155?referer=skiquality.com"},{"id":"2156","name":"Precision Ski Charmettoger","lat":45.568642,"lng":6.777533,"address":"Residence L'aiguille grive 3, Les Arcs 1800","website":"https://www.alpy.com/fr/location-ski/parameters/2156?referer=skiquality.com"},{"id":"2175","name":"Precision ski  EdenArc Le Chantel","lat":45.574589,"lng":6.78459,"address":"Résidence Odalys, Lieu dit le Chantel","website":"https://www.alpy.com/fr/location-ski/parameters/2175?referer=skiquality.com"},{"id":"1935","name":"Delay Savoie Sport","lat":45.572968,"lng":6.778254,"address":"Immeuble les tournavelles - Les Villards","website":"https://www.alpy.com/fr/location-ski/parameters/1935?referer=skiquality.com"},{"id":"2130","name":"Arcadia","lat":45.575581,"lng":6.780035,"address":"Immeuble Bellecote - Le Charvet","website":"https://www.alpy.com/fr/location-ski/parameters/2130?referer=skiquality.com"},{"id":"4729","name":"Wocan Delivery - Arc 1600","lat":45.5954,"lng":6.79196,"address":"Hotel-Shop-Shuttle-Service","website":"https://www.alpy.com/fr/location-ski/parameters/4729?referer=skiquality.com"},{"id":"2193","name":"Precision Ski Roc Belle Face","lat":45.596775,"lng":6.794003,"address":"Résidence Les 3 Arcs","website":"https://www.alpy.com/fr/location-ski/parameters/2193?referer=skiquality.com"},{"id":"3556","name":"Christina Sports","lat":45.595539,"lng":6.792722,"address":"12 Place du soleil - Funiculaire Arc-en-ciel","website":"https://www.alpy.com/fr/location-ski/parameters/3556?referer=skiquality.com"}]},"les-carroz":{"name":"Les Carroz ","center":[46.026218,6.638095],"zoom":13,"shops":[{"id":"4190","name":"Skilimandjaro","lat":46.025711,"lng":6.63686,"address":"3, route  du Serveray","website":"https://www.alpy.com/fr/location-ski/parameters/4190?referer=skiquality.com"},{"id":"4767","name":"Ekosport-Rent Techniglisse","lat":46.026333,"lng":6.638824,"address":"3230 route de la Barliette","website":"https://www.alpy.com/fr/location-ski/parameters/4767?referer=skiquality.com"},{"id":"3730","name":"Adventure Ski","lat":46.026611,"lng":6.638602,"address":"47, route du Val Renand\t- Bat. Pierre & Vacances","website":"https://www.alpy.com/fr/location-ski/parameters/3730?referer=skiquality.com"}]},"les-contamines-montjoie":{"name":"Les Contamines Montjoie","center":[45.818204,6.726316],"zoom":13,"shops":[{"id":"4140","name":"Ski Tout Schuss","lat":45.810925,"lng":6.724658,"address":"226 Chemin des Hameaux du Lay","website":"https://www.alpy.com/fr/location-ski/parameters/4140?referer=skiquality.com"},{"id":"4632","name":"Mountain Shop By Cuby","lat":45.822058,"lng":6.72712,"address":"71 Route de Notre Dame de la Gorge","website":"https://www.alpy.com/fr/location-ski/parameters/4632?referer=skiquality.com"},{"id":"1459","name":"Centre","lat":45.821629,"lng":6.72717,"address":"125, Rte de Notre Dame de la Gorge","website":"https://www.alpy.com/fr/location-ski/parameters/1459?referer=skiquality.com"}]},"les-gets":{"name":"Les Gets","center":[46.158485,6.669113],"zoom":13,"shops":[{"id":"2327","name":"Ski Republic Rue du Centre Evasion Sport","lat":46.160179,"lng":6.670588,"address":"16 Rue de Pressenage","website":"https://www.alpy.com/fr/location-ski/parameters/2327?referer=skiquality.com"},{"id":"4664","name":"Ski Republic Centre Station Yolo Store","lat":46.158071,"lng":6.66811,"address":"448 rue du centre","website":"https://www.alpy.com/fr/location-ski/parameters/4664?referer=skiquality.com"},{"id":"3780","name":"Le Grenier à Skis","lat":46.158649,"lng":6.670788,"address":"90 Chemin de Carry","website":"https://www.alpy.com/fr/location-ski/parameters/3780?referer=skiquality.com"},{"id":"3137","name":"Jordan's Sports","lat":46.15831,"lng":6.66926,"address":"128 Route du Front de Neige Im le Cry de Lys","website":"https://www.alpy.com/fr/location-ski/parameters/3137?referer=skiquality.com"},{"id":"4663","name":"Ekosport-rent Desire Sports","lat":46.157544,"lng":6.66739,"address":"516 route du Centre","website":"https://www.alpy.com/fr/location-ski/parameters/4663?referer=skiquality.com"},{"id":"217","name":"Contat Sports","lat":46.158157,"lng":6.668542,"address":"421 Rue du centre - Résidence Le Mont Chéry","website":"https://www.alpy.com/fr/location-ski/parameters/217?referer=skiquality.com"}]},"les-houches":{"name":"Les Houches ","center":[45.891386,6.795936],"zoom":13,"shops":[{"id":"2245","name":"Munari Sports Mont Blanc Sports","lat":45.8913,"lng":6.79881,"address":"156, rue de l'Eglise","website":"https://www.alpy.com/fr/location-ski/parameters/2245?referer=skiquality.com"},{"id":"4766","name":"Ekosport-rent Bellevue Sport","lat":45.889844,"lng":6.78878,"address":"12 rue de Bellevue","website":"https://www.alpy.com/fr/location-ski/parameters/4766?referer=skiquality.com"},{"id":"219","name":"Cuby Sport","lat":45.893013,"lng":6.800217,"address":"130 Avenue des Alpages","website":"https://www.alpy.com/fr/location-ski/parameters/219?referer=skiquality.com"}]},"les-menuires":{"name":"Les Menuires ","center":[45.323375,6.539044],"zoom":13,"shops":[{"id":"358","name":"Snow Sport","lat":45.31493,"lng":6.540873,"address":"Centre Commercial Les Bruyères","website":"https://www.alpy.com/fr/location-ski/parameters/358?referer=skiquality.com"},{"id":"2330","name":"Ski Republic La Croisette - Extremoutain","lat":45.323948,"lng":6.53782,"address":"Immeuble Vanoise - La Croisette","website":"https://www.alpy.com/fr/location-ski/parameters/2330?referer=skiquality.com"},{"id":"2247","name":"Ski Republic Brelin Le Capricorne","lat":45.32679,"lng":6.540599,"address":"Le Capricorne - Résidence Brelin -","website":"https://www.alpy.com/fr/location-ski/parameters/2247?referer=skiquality.com"},{"id":"2383","name":"Rosael Sports","lat":45.318382,"lng":6.547473,"address":"486, rue des Cimes, Les chalets du Soleil/Hotel Kaya, Reberty 2000","website":"https://www.alpy.com/fr/location-ski/parameters/2383?referer=skiquality.com"},{"id":"2248","name":"Roc Sports","lat":45.319443,"lng":6.537772,"address":"Immeuble l'Argousier - Les Fontanettes","website":"https://www.alpy.com/fr/location-ski/parameters/2248?referer=skiquality.com"},{"id":"355","name":"Menuir'sports","lat":45.325447,"lng":6.538395,"address":"La Croisette\" Galerie Commerciale de l'Adret - Front de  Neige","website":"https://www.alpy.com/fr/location-ski/parameters/355?referer=skiquality.com"},{"id":"4686","name":"Ekosport-rent Pirate Board Shop","lat":45.324279,"lng":6.537929,"address":"Galerie de l'Oisans La Croisette","website":"https://www.alpy.com/fr/location-ski/parameters/4686?referer=skiquality.com"},{"id":"3843","name":"Balcons du Bettex","lat":45.342101,"lng":6.526586,"address":"23 Place du Bassin - Le Bettex","website":"https://www.alpy.com/fr/location-ski/parameters/3843?referer=skiquality.com"},{"id":"2249","name":"Absolu Sports","lat":45.315052,"lng":6.543946,"address":"1850 Route de Reberty, Le Genepi","website":"https://www.alpy.com/fr/location-ski/parameters/2249?referer=skiquality.com"}]},"les-saisies":{"name":"Les Saisies ","center":[45.697337,6.5501],"zoom":13,"shops":[{"id":"5017","name":"Wocan Delivery - Montagny","lat":45.45593,"lng":6.59133,"address":"Hotel-Shop-Shuttle-Service","website":"https://www.alpy.com/fr/location-ski/parameters/5017?referer=skiquality.com"},{"id":"3840","name":"Twoskiglisse","lat":45.75798,"lng":6.543546,"address":"Les Hauts lieux","website":"https://www.alpy.com/fr/location-ski/parameters/3840?referer=skiquality.com"},{"id":"3833","name":"Ski Republic Centre Station Alti Sports","lat":45.757549,"lng":6.538957,"address":"Avenue des Jeux Olympiques 73620 Hauteluce","website":"https://www.alpy.com/fr/location-ski/parameters/3833?referer=skiquality.com"},{"id":"2251","name":"Precision Ski Centre Station Isabella Sports","lat":45.75753,"lng":6.539253,"address":"avenue des Jeux Olympiques 73620 Les Saisies","website":"https://www.alpy.com/fr/location-ski/parameters/2251?referer=skiquality.com"},{"id":"359","name":"Les Volatiles","lat":45.757694,"lng":6.537415,"address":"196 Avenue des J.O.","website":"https://www.alpy.com/fr/location-ski/parameters/359?referer=skiquality.com"}]},"megeve":{"name":"Megève ","center":[45.860075,6.617139],"zoom":13,"shops":[{"id":"2575","name":"Ski Flash","lat":45.865501,"lng":6.618241,"address":"905 Route du Jaillet","website":"https://www.alpy.com/fr/location-ski/parameters/2575?referer=skiquality.com"},{"id":"220","name":"Anouk Socquet Sports","lat":45.854649,"lng":6.616037,"address":"Carrefour de Rochebrune","website":"https://www.alpy.com/fr/location-ski/parameters/220?referer=skiquality.com"}]},"meribel":{"name":"Méribel ","center":[45.39365,6.569715],"zoom":13,"shops":[{"id":"2187","name":"Ski Republic Le Hameau","lat":45.37413,"lng":6.57208,"address":"Résidence Odalys-Le Hameau du Mottaret","website":"https://www.alpy.com/fr/location-ski/parameters/2187?referer=skiquality.com"},{"id":"2172","name":"Precision Ski Méribel Mottaret Centre","lat":45.37323,"lng":6.5796,"address":"Centre Commercial Club Hôtel, Front de neige","website":"https://www.alpy.com/fr/location-ski/parameters/2172?referer=skiquality.com"},{"id":"365","name":"Mottaret Ski Évasion","lat":45.373596,"lng":6.577899,"address":"Chemin des gentianes   Résidence L'Hotel du Mottaret","website":"https://www.alpy.com/fr/location-ski/parameters/365?referer=skiquality.com"},{"id":"1548","name":"Méribel Le Plateau","lat":45.399399,"lng":6.573938,"address":"Route du plateau-rond point des pistes","website":"https://www.alpy.com/fr/location-ski/parameters/1548?referer=skiquality.com"},{"id":"4328","name":"Ekosport-rent Ski Higher","lat":45.430206,"lng":6.556143,"address":"Route de la Resse, La Vieille Scierie","website":"https://www.alpy.com/fr/location-ski/parameters/4328?referer=skiquality.com"},{"id":"3553","name":"White Storm Méribel","lat":45.397469,"lng":6.565976,"address":"530 rue des Jeux Olympiques - La Tougnete","website":"https://www.alpy.com/fr/location-ski/parameters/3553?referer=skiquality.com"},{"id":"2171","name":"Precision Ski Meribel Centre Marine","lat":45.397251,"lng":6.56623,"address":"Résidence La Tougnette, Rue du Centre","website":"https://www.alpy.com/fr/location-ski/parameters/2171?referer=skiquality.com"},{"id":"2170","name":"Precision Ski Méribel Centre La Chaudanne","lat":45.394081,"lng":6.56691,"address":"Immeuble Le Tremplin, Montée de la Chaudanne","website":"https://www.alpy.com/fr/location-ski/parameters/2170?referer=skiquality.com"},{"id":"4187","name":"AUDACIUS SHOP","lat":45.397877,"lng":6.564395,"address":"61, rue des Jeux Olympiques – Immeuble le tremplin","website":"https://www.alpy.com/fr/location-ski/parameters/4187?referer=skiquality.com"},{"id":"360","name":"Alp'sports","lat":45.399258,"lng":6.573983,"address":"Galerie Commerciale Plateau de Morel","website":"https://www.alpy.com/fr/location-ski/parameters/360?referer=skiquality.com"}]},"montchavin---la-plagne":{"name":"Montchavin-La-Plagne ","center":[45.559733,6.736335],"zoom":13,"shops":[{"id":"4352","name":"Ski Shop Montchavin Sportshop Paradiski","lat":45.560299,"lng":6.735779,"address":"5 rue de la Glisse","website":"https://www.alpy.com/fr/location-ski/parameters/4352?referer=skiquality.com"},{"id":"4069","name":"Ski Republic Montchavin Village","lat":45.560211,"lng":6.7348,"address":"Immeuble La Porte de Montchavin","website":"https://www.alpy.com/fr/location-ski/parameters/4069?referer=skiquality.com"},{"id":"2307","name":"Ski Republic Montchavin  Les 3 Glaciers","lat":45.558037,"lng":6.739023,"address":"Résidence Les 3 Glaciers, 20 Chemin du Paradisio - Lieu dit : Le Replat 73210 Montchavin-les-Coches","website":"https://www.alpy.com/fr/location-ski/parameters/2307?referer=skiquality.com"},{"id":"1479","name":"Montchavin","lat":45.559818,"lng":6.736295,"address":"2 chemin du Paradisio","website":"https://www.alpy.com/fr/location-ski/parameters/1479?referer=skiquality.com"},{"id":"4348","name":"Ekosport-rent Montchavin Sport","lat":45.560299,"lng":6.735779,"address":"2 rue Principale","website":"https://www.alpy.com/fr/location-ski/parameters/4348?referer=skiquality.com"}]},"montriond":{"name":"Montriond ","center":[46.205532,6.727804],"zoom":13,"shops":[{"id":"223","name":"Ardent Sports (Télécabine Ardent)","lat":46.214481,"lng":6.761194,"address":"Télécabine d'Ardent - Domaine d'Avoriaz","website":"https://www.alpy.com/fr/location-ski/parameters/223?referer=skiquality.com"},{"id":"222","name":"Ardent Sports","lat":46.196583,"lng":6.694413,"address":"Centre Station","website":"https://www.alpy.com/fr/location-ski/parameters/222?referer=skiquality.com"}]},"morillon":{"name":"Morillon ","center":[46.07925,6.677292],"zoom":13,"shops":[{"id":"4236","name":"Verneret sports","lat":46.08234,"lng":6.679087,"address":"Résidence l'Honoraz","website":"https://www.alpy.com/fr/location-ski/parameters/4236?referer=skiquality.com"},{"id":"2257","name":"Verneret Sports","lat":46.081684,"lng":6.679087,"address":"Résidence Edelweiss des Neiges","website":"https://www.alpy.com/fr/location-ski/parameters/2257?referer=skiquality.com"},{"id":"4395","name":"Ski Republic Centre Station J'aime Sport","lat":46.081672,"lng":6.682589,"address":"Le Messidor","website":"https://www.alpy.com/fr/location-ski/parameters/4395?referer=skiquality.com"},{"id":"225","name":"Denarié Sport","lat":46.084225,"lng":6.675152,"address":"75 Route de Cluses","website":"https://www.alpy.com/fr/location-ski/parameters/225?referer=skiquality.com"},{"id":"1875","name":"Auben Ski","lat":46.06633,"lng":6.670543,"address":"Praz des Esserts - 17 impasse du Forum","website":"https://www.alpy.com/fr/location-ski/parameters/1875?referer=skiquality.com"}]},"morzine":{"name":"Morzine ","center":[46.183184,6.708804],"zoom":13,"shops":[{"id":"1484","name":"Super Morzine","lat":46.183445,"lng":6.70328,"address":"9 Taille Mas de la Passerelle","website":"https://www.alpy.com/fr/location-ski/parameters/1484?referer=skiquality.com"},{"id":"2260","name":"Ski Republic Centre Station Morz'na Sport","lat":46.181095,"lng":6.705067,"address":"3 Rond-Point de la Crusaz","website":"https://www.alpy.com/fr/location-ski/parameters/2260?referer=skiquality.com"},{"id":"4146","name":"Prodains Sports","lat":46.189808,"lng":6.753858,"address":"Les prodains","website":"https://www.alpy.com/fr/location-ski/parameters/4146?referer=skiquality.com"},{"id":"4353","name":"Precision Ski Front De Neige Pleney La Clinik","lat":46.180279,"lng":6.70231,"address":"141 Taille de Mas du Pleney","website":"https://www.alpy.com/fr/location-ski/parameters/4353?referer=skiquality.com"},{"id":"2046","name":"Mathias Sports (Hôtel Le Crêt)","lat":46.187477,"lng":6.695261,"address":"905 Route de la Plagne","website":"https://www.alpy.com/fr/location-ski/parameters/2046?referer=skiquality.com"},{"id":"226","name":"Mathias Sport","lat":46.180962,"lng":6.702649,"address":"60 TDM du Pleney","website":"https://www.alpy.com/fr/location-ski/parameters/226?referer=skiquality.com"},{"id":"1482","name":"Le Bourg","lat":46.179379,"lng":6.706317,"address":"180, rue du Bourg","website":"https://www.alpy.com/fr/location-ski/parameters/1482?referer=skiquality.com"},{"id":"4678","name":"Ekosport-rent Alpine Sports","lat":46.183026,"lng":6.701688,"address":"237 Route de la Plagne","website":"https://www.alpy.com/fr/location-ski/parameters/4678?referer=skiquality.com"}]},"notre-dame-du-pre":{"name":"Notre-Dame-du-Pré ","center":[45.51149,6.59446],"zoom":13,"shops":[{"id":"4997","name":"Wocan Delivery - Notre dame-du-pré","lat":45.51149,"lng":6.59446,"address":"Hotel-Shop-Shuttle-Service","website":"https://www.alpy.com/fr/location-ski/parameters/4997?referer=skiquality.com"}]},"oz-en-oisans":{"name":"Oz-en-Oisans","center":[45.128968,6.071994],"zoom":13,"shops":[{"id":"4318","name":"Ekosport-rent Loc Skis OZ","lat":45.12817,"lng":6.07168,"address":"Front de Neige","website":"https://www.alpy.com/fr/location-ski/parameters/4318?referer=skiquality.com"},{"id":"284","name":"Boit'a Skis","lat":45.129765,"lng":6.072309,"address":"Résidence les Airelles","website":"https://www.alpy.com/fr/location-ski/parameters/284?referer=skiquality.com"}]},"peisey-vallandry":{"name":"Peisey-Vallandry","center":[45.552204,6.763528],"zoom":13,"shops":[{"id":"2176","name":"Ski Republic Vallandry - Centre","lat":45.555611,"lng":6.76195,"address":"La Maison de Vallandry","website":"https://www.alpy.com/fr/location-ski/parameters/2176?referer=skiquality.com"},{"id":"4309","name":"Ekosport-rent Berard Skishop Peisey","lat":45.552719,"lng":6.76214,"address":"Résidence Les Cordettes Plan Peisey","website":"https://www.alpy.com/fr/location-ski/parameters/4309?referer=skiquality.com"},{"id":"3505","name":"Vallandry Sports","lat":45.556488,"lng":6.762763,"address":"Centre Commercial Vallandry, D226","website":"https://www.alpy.com/fr/location-ski/parameters/3505?referer=skiquality.com"},{"id":"369","name":"Noz Sports","lat":45.552105,"lng":6.762393,"address":"Centre Cial du Soleil / Plan Peisey","website":"https://www.alpy.com/fr/location-ski/parameters/369?referer=skiquality.com"},{"id":"4310","name":"Ekosport-rent Berard Skishop Vallandry","lat":45.556625,"lng":6.762238,"address":"Galerie Commerciale de Vallandry , Rte des Michailles, 73210 Landry","website":"https://www.alpy.com/fr/location-ski/parameters/4310?referer=skiquality.com"},{"id":"368","name":"Berard Skishop","lat":45.556419,"lng":6.762444,"address":"Centre Commercial de Vallandry","website":"https://www.alpy.com/fr/location-ski/parameters/368?referer=skiquality.com"},{"id":"4913","name":"Wocan Delivery - Nancroix","lat":45.53546,"lng":6.77077,"address":"Hotel-Shop-Shuttle-Service","website":"https://www.alpy.com/fr/location-ski/parameters/4913?referer=skiquality.com"}]},"pralognan-la-vanoise":{"name":"Pralognan-la-Vanoise ","center":[45.38056,6.72271],"zoom":13,"shops":[{"id":"2490","name":"Precision Ski Centre Station Soopy","lat":45.381252,"lng":6.722402,"address":"47 Avenue du Grand Couloir","website":"https://www.alpy.com/fr/location-ski/parameters/2490?referer=skiquality.com"},{"id":"1722","name":"Alpigliss","lat":45.379868,"lng":6.723019,"address":"Immeuble l Avenue de Chasseforêt","website":"https://www.alpy.com/fr/location-ski/parameters/1722?referer=skiquality.com"}]},"praz-de-lys-sommand":{"name":"Praz de Lys Sommand ","center":[46.148924,6.592406],"zoom":13,"shops":[{"id":"5034","name":"Ski Republic Ski Shop Praz De Lys","lat":46.14896,"lng":6.59207,"address":"1159 route de chevaly","website":"https://www.alpy.com/fr/location-ski/parameters/5034?referer=skiquality.com"},{"id":"211","name":"Le Spot du Praz","lat":46.148888,"lng":6.592742,"address":"1117 Route de chevaly","website":"https://www.alpy.com/fr/location-ski/parameters/211?referer=skiquality.com"}]},"praz-sur-arly":{"name":"Praz-sur-Arly ","center":[45.837303,6.570165],"zoom":13,"shops":[{"id":"228","name":"Curtet Sport","lat":45.837303,"lng":6.570165,"address":"121, route du Val d'Arly","website":"https://www.alpy.com/fr/location-ski/parameters/228?referer=skiquality.com"}]},"saint-colomban-des-villards":{"name":"Saint-Colomban-des-Villards ","center":[45.29414,6.226481],"zoom":13,"shops":[{"id":"372","name":"Skis Services","lat":45.29414,"lng":6.226481,"address":"Centre Station Village","website":"https://www.alpy.com/fr/location-ski/parameters/372?referer=skiquality.com"}]},"saint-francois-longchamp":{"name":"Saint-François-Longchamp ","center":[45.418245,6.363052],"zoom":13,"shops":[{"id":"4679","name":"Ski Republic Centre Station 1650 SNO2","lat":45.420311,"lng":6.365398,"address":"Immeuble le Frêne - Place de la Lauzière","website":"https://www.alpy.com/fr/location-ski/parameters/4679?referer=skiquality.com"},{"id":"2336","name":"Ski Rep Centre 1650 St François Sports Madeleine","lat":45.416912,"lng":6.362846,"address":"place de la Madeleine","website":"https://www.alpy.com/fr/location-ski/parameters/2336?referer=skiquality.com"},{"id":"375","name":"Ravoir'sports (les Longes)","lat":45.415245,"lng":6.358802,"address":"Les Longes","website":"https://www.alpy.com/fr/location-ski/parameters/375?referer=skiquality.com"},{"id":"374","name":"Ravoir'sports (les 4 Vallées)","lat":45.421001,"lng":6.363945,"address":"Les 4 vallées","website":"https://www.alpy.com/fr/location-ski/parameters/374?referer=skiquality.com"},{"id":"373","name":"Ravoir'sports (La Madeleine)","lat":45.417191,"lng":6.362641,"address":"Résidence La Madeleine","website":"https://www.alpy.com/fr/location-ski/parameters/373?referer=skiquality.com"},{"id":"3550","name":"Ravoir'sports (L'Alouette)","lat":45.418812,"lng":6.364683,"address":"L'Alouette","website":"https://www.alpy.com/fr/location-ski/parameters/3550?referer=skiquality.com"}]},"saint-gervais-mont-blanc":{"name":"Saint-Gervais Mont-Blanc ","center":[45.886419,6.703661],"zoom":13,"shops":[{"id":"1232","name":"Loca Ski Saint Gervais","lat":45.892017,"lng":6.712985,"address":"191 avenue du Mont d'Arbois","website":"https://www.alpy.com/fr/location-ski/parameters/1232?referer=skiquality.com"},{"id":"229","name":"Loca Ski Bettex","lat":45.875011,"lng":6.685119,"address":"4360 Route du Bettex","website":"https://www.alpy.com/fr/location-ski/parameters/229?referer=skiquality.com"},{"id":"5049","name":"Ago Sports","lat":45.89223,"lng":6.71288,"address":"129 avenue du Mont d'Arbois","website":"https://www.alpy.com/fr/location-ski/parameters/5049?referer=skiquality.com"}]},"saint-jean-darves":{"name":"Saint-Jean-d'Arves ","center":[45.214262,6.264051],"zoom":13,"shops":[{"id":"1227","name":"Val d'Arvan","lat":45.214424,"lng":6.26391,"address":"La Chal 1600","website":"https://www.alpy.com/fr/location-ski/parameters/1227?referer=skiquality.com"},{"id":"2275","name":"Raymond Sports","lat":45.2141,"lng":6.264192,"address":"La Chal","website":"https://www.alpy.com/fr/location-ski/parameters/2275?referer=skiquality.com"}]},"saint-martin-de-belleville":{"name":"Saint-Martin-de-Belleville ","center":[45.376705,6.505126],"zoom":13,"shops":[{"id":"378","name":"Jean Sports","lat":45.377296,"lng":6.504215,"address":"Les Grangeraies - Rue Notre Dame","website":"https://www.alpy.com/fr/location-ski/parameters/378?referer=skiquality.com"},{"id":"3547","name":"Belleville Pro Glisse","lat":45.376114,"lng":6.506037,"address":"Chemin de Notre Dame - quartier CASEBLANCHE","website":"https://www.alpy.com/fr/location-ski/parameters/3547?referer=skiquality.com"}]},"saint-sorlin-darves":{"name":"Saint-Sorlin-d'Arves ","center":[45.220677,6.224942],"zoom":13,"shops":[{"id":"379","name":"L'Ouillon Sports","lat":45.220432,"lng":6.222823,"address":"Les Gentianes - Le Bourg","website":"https://www.alpy.com/fr/location-ski/parameters/379?referer=skiquality.com"},{"id":"4659","name":"Ekosport-rent L'Ouillon Sports","lat":45.22029,"lng":6.22277,"address":"Les Gentianes - Le Bourg","website":"https://www.alpy.com/fr/location-ski/parameters/4659?referer=skiquality.com"},{"id":"1723","name":"Arthur Sports","lat":45.22131,"lng":6.229232,"address":"Centre vil Champrond","website":"https://www.alpy.com/fr/location-ski/parameters/1723?referer=skiquality.com"}]},"sainte-foy-tarentaise":{"name":"Sainte-Foy-Tarentaise ","center":[45.576092,6.89393],"zoom":13,"shops":[{"id":"2182","name":"Ski Republic Ste Foy Centre","lat":45.576092,"lng":6.89393,"address":"Bon Conseil","website":"https://www.alpy.com/fr/location-ski/parameters/2182?referer=skiquality.com"}]},"samoens":{"name":"Samoëns ","center":[46.078553,6.721407],"zoom":13,"shops":[{"id":"2494","name":"Ski Loc","lat":46.053192,"lng":6.698694,"address":"Le Plateaux des Saix","website":"https://www.alpy.com/fr/location-ski/parameters/2494?referer=skiquality.com"},{"id":"4397","name":"Ski Republic Avenue Fer à Cheval - J'aime Sport","lat":46.081272,"lng":6.726202,"address":"217 avenue du Fer à Cheval","website":"https://www.alpy.com/fr/location-ski/parameters/4397?referer=skiquality.com"},{"id":"4396","name":"Ski Rep Route du Grand Massif Sports Experiences","lat":46.076927,"lng":6.720211,"address":"718 route du Grand Massif","website":"https://www.alpy.com/fr/location-ski/parameters/4396?referer=skiquality.com"},{"id":"2338","name":"Ski Family","lat":46.083778,"lng":6.723722,"address":"58, rue des Glaciers","website":"https://www.alpy.com/fr/location-ski/parameters/2338?referer=skiquality.com"},{"id":"4668","name":"Precision Ski Route de Sixt Big Bear","lat":46.08282,"lng":6.72867,"address":"93B Place du Criou","website":"https://www.alpy.com/fr/location-ski/parameters/4668?referer=skiquality.com"},{"id":"232","name":"Passion Glisse","lat":46.082684,"lng":6.723763,"address":"16 Place de la Gare","website":"https://www.alpy.com/fr/location-ski/parameters/232?referer=skiquality.com"},{"id":"4319","name":"Ekosport-rent - Pellissier Sport","lat":46.083561,"lng":6.725349,"address":"47 Grande Rue","website":"https://www.alpy.com/fr/location-ski/parameters/4319?referer=skiquality.com"},{"id":"2812","name":"100% Ski","lat":46.084194,"lng":6.724645,"address":"166 Grande rue","website":"https://www.alpy.com/fr/location-ski/parameters/2812?referer=skiquality.com"}]},"serre-chevalier":{"name":"Serre Chevalier ","center":[44.992833,6.571298],"zoom":13,"shops":[{"id":"2339","name":"Freeride Mônetier-les-Bains Sport Rent","lat":44.974594,"lng":6.510133,"address":"Le Monetier-les-Bains","website":"https://www.alpy.com/fr/location-ski/parameters/2339?referer=skiquality.com"},{"id":"1733","name":"Altitude Serre Chevalier le Monetier","lat":44.974594,"lng":6.510133,"address":"Place de l'Eglise","website":"https://www.alpy.com/fr/location-ski/parameters/1733?referer=skiquality.com"},{"id":"251","name":"Sport's Mountain","lat":45.018906,"lng":6.56496,"address":"Village Villeneuve-la-Salle","website":"https://www.alpy.com/fr/location-ski/parameters/251?referer=skiquality.com"},{"id":"253","name":"Sport 2000 Altitude (Villeneuve)","lat":45.018906,"lng":6.56496,"address":"Place du Téléphérique","website":"https://www.alpy.com/fr/location-ski/parameters/253?referer=skiquality.com"},{"id":"4676","name":"Ski Republic Villeneuve Dr Feelgood","lat":45.018906,"lng":6.56496,"address":"Place du Téléphérique","website":"https://www.alpy.com/fr/location-ski/parameters/4676?referer=skiquality.com"},{"id":"2341","name":"Freeride Villeneuve Sport Rent","lat":45.018906,"lng":6.56496,"address":"Place du Téléphérique","website":"https://www.alpy.com/fr/location-ski/parameters/2341?referer=skiquality.com"},{"id":"4331","name":"Riquet Sport Prelong","lat":44.996929,"lng":6.582988,"address":"Village Prelong","website":"https://www.alpy.com/fr/location-ski/parameters/4331?referer=skiquality.com"},{"id":"4325","name":"Ekosport-rent Riquet Sport Aravet","lat":44.997437,"lng":6.580476,"address":"Village Aravet","website":"https://www.alpy.com/fr/location-ski/parameters/4325?referer=skiquality.com"},{"id":"2143","name":"Sport 2000 Altitude (Chantemerle)","lat":44.996929,"lng":6.582988,"address":"Village Chantemerle","website":"https://www.alpy.com/fr/location-ski/parameters/2143?referer=skiquality.com"},{"id":"2340","name":"Freeride Chantemerle Sport Rent","lat":44.996929,"lng":6.582988,"address":"Espace Chantemerle 4","website":"https://www.alpy.com/fr/location-ski/parameters/2340?referer=skiquality.com"},{"id":"4324","name":"Ekosport-rent Riquet Sport Chantemerle","lat":44.996929,"lng":6.582988,"address":"Village Chantmerle","website":"https://www.alpy.com/fr/location-ski/parameters/4324?referer=skiquality.com"},{"id":"250","name":"Krakatoa","lat":44.996929,"lng":6.582988,"address":"Les Guibertes","website":"https://www.alpy.com/fr/location-ski/parameters/250?referer=skiquality.com"},{"id":"4323","name":"Ekosport-rent Riquet Sport Briancon","lat":44.895843,"lng":6.63966,"address":"1 Avenue du Général de Gaulle","website":"https://www.alpy.com/fr/location-ski/parameters/4323?referer=skiquality.com"},{"id":"4355","name":"Precision Ski Chantemerle Reysports","lat":44.996929,"lng":6.582988,"address":"Immeuble l'Adret","website":"https://www.alpy.com/fr/location-ski/parameters/4355?referer=skiquality.com"}]},"sixt-fer-a-cheval":{"name":"Sixt-Fer-à-Cheval ","center":[46.053406,6.774293],"zoom":13,"shops":[{"id":"234","name":"Lionel Sports","lat":46.053406,"lng":6.774293,"address":"Le Ruan - Chef Lieu","website":"https://www.alpy.com/fr/location-ski/parameters/234?referer=skiquality.com"}]},"tignes":{"name":"Tignes","center":[45.46746,6.907084],"zoom":13,"shops":[{"id":"3129","name":"Yab Sports","lat":45.455414,"lng":6.898431,"address":"Route de la Grande Motte Immeuble le Diva","website":"https://www.alpy.com/fr/location-ski/parameters/3129?referer=skiquality.com"},{"id":"385","name":"Sport Glisse","lat":45.455753,"lng":6.901094,"address":"LES HAUTS DU VAL CLARET, PLACE DU CURLING","website":"https://www.alpy.com/fr/location-ski/parameters/385?referer=skiquality.com"},{"id":"2165","name":"Ski Republic Val Claret Diva","lat":45.454208,"lng":6.89846,"address":"Belambra Club \"le Diva","website":"https://www.alpy.com/fr/location-ski/parameters/2165?referer=skiquality.com"},{"id":"2482","name":"Ski Republic Le Borsat","lat":45.453701,"lng":6.90135,"address":"Immeuble Le Borsat","website":"https://www.alpy.com/fr/location-ski/parameters/2482?referer=skiquality.com"},{"id":"2164","name":"Precision Ski Tignes Val Claret - Centre","lat":45.457039,"lng":6.900927,"address":"Résidence Les Platières, Hauts du Val Claret","website":"https://www.alpy.com/fr/location-ski/parameters/2164?referer=skiquality.com"},{"id":"3181","name":"Arctik","lat":45.457073,"lng":6.900905,"address":"Le Grand Tichot - Val Claret Centre","website":"https://www.alpy.com/fr/location-ski/parameters/3181?referer=skiquality.com"},{"id":"1865","name":"Antarctik","lat":45.453705,"lng":6.898814,"address":"Avenue de Rond Point Des Pistes - Val Claret","website":"https://www.alpy.com/fr/location-ski/parameters/1865?referer=skiquality.com"},{"id":"1544","name":"Les Brévières","lat":45.50761,"lng":6.91982,"address":"Centre Station- Les Brévières- Rue principale","website":"https://www.alpy.com/fr/location-ski/parameters/1544?referer=skiquality.com"},{"id":"384","name":"Alpes Glisses","lat":45.496147,"lng":6.927536,"address":"Chalet de Bazel Kalinda Altaviva- 20 Rue de Ronnaz - Tignes 1800 Les Boisses","website":"https://www.alpy.com/fr/location-ski/parameters/384?referer=skiquality.com"},{"id":"1551","name":"Quartier des Almes","lat":45.470577,"lng":6.907787,"address":"Quartier des Almes","website":"https://www.alpy.com/fr/location-ski/parameters/1551?referer=skiquality.com"},{"id":"2504","name":"Precision Ski Palafour","lat":45.468971,"lng":6.90583,"address":"Front de Neige - Immeuble Palafour","website":"https://www.alpy.com/fr/location-ski/parameters/2504?referer=skiquality.com"},{"id":"2167","name":"Precision Ski Le Lac","lat":45.46833,"lng":6.90862,"address":"Résidence Le Rosset Neige et Soleil, Route du Lavachet","website":"https://www.alpy.com/fr/location-ski/parameters/2167?referer=skiquality.com"},{"id":"4217","name":"Monkey riders","lat":45.46875,"lng":6.90485,"address":"Immeuble le Palafour - Rue de la poste","website":"https://www.alpy.com/fr/location-ski/parameters/4217?referer=skiquality.com"},{"id":"1973","name":"La Godille de Tignes","lat":45.468307,"lng":6.909399,"address":"Quartier L Promenade de Tovière - Le Rosset","website":"https://www.alpy.com/fr/location-ski/parameters/1973?referer=skiquality.com"},{"id":"2109","name":"Tignes Spirit Rental","lat":45.471817,"lng":6.914874,"address":"Shop 1, Centre Commercial du Lavachet Lavachet","website":"https://www.alpy.com/fr/location-ski/parameters/2109?referer=skiquality.com"},{"id":"2480","name":"Ski Republic Lavachet","lat":45.471951,"lng":6.91464,"address":"Hameau de Tovière Lot300","website":"https://www.alpy.com/fr/location-ski/parameters/2480?referer=skiquality.com"}]},"val-cenis":{"name":"Val Cenis ","center":[45.288534,6.900654],"zoom":13,"shops":[{"id":"2292","name":"Ski Republic Centre Lanslebourg César Sports","lat":45.285275,"lng":6.876508,"address":"29 Rue du Mont Cenis","website":"https://www.alpy.com/fr/location-ski/parameters/2292?referer=skiquality.com"},{"id":"4157","name":"Ski Republic Centre Lanslevillard Sports Vanoise","lat":45.291214,"lng":6.914529,"address":"Centre Commercial - 133 Rue de Saint-Landry","website":"https://www.alpy.com/fr/location-ski/parameters/4157?referer=skiquality.com"},{"id":"345","name":"La Poudreuse","lat":45.289448,"lng":6.908004,"address":"97 Rue des Rochers","website":"https://www.alpy.com/fr/location-ski/parameters/345?referer=skiquality.com"},{"id":"4316","name":"Ekosport-rent Le Pied Des Pistes","lat":45.289551,"lng":6.906861,"address":"335 Rue des Rochers","website":"https://www.alpy.com/fr/location-ski/parameters/4316?referer=skiquality.com"},{"id":"347","name":"Balcons Sports","lat":45.290356,"lng":6.916245,"address":"Les Balcons Val Cenis Village - Bat 7 Planchamp","website":"https://www.alpy.com/fr/location-ski/parameters/347?referer=skiquality.com"},{"id":"1719","name":"Val Sports","lat":45.285362,"lng":6.881779,"address":"110 Rue du Mont Cenis","website":"https://www.alpy.com/fr/location-ski/parameters/1719?referer=skiquality.com"}]},"val-disere":{"name":"Val d'Isère ","center":[45.451127,6.975968],"zoom":13,"shops":[{"id":"4300","name":"Ski Republic Val d'Isère La Daille","lat":45.461849,"lng":6.96401,"address":"78 place du Bellecôte","website":"https://www.alpy.com/fr/location-ski/parameters/4300?referer=skiquality.com"},{"id":"3268","name":"Valsnow","lat":45.449257,"lng":6.979396,"address":"Centre station Val Snow, 173 Av. Olympique","website":"https://www.alpy.com/fr/location-ski/parameters/3268?referer=skiquality.com"},{"id":"2181","name":"Ski Republic Centre Station Val Village","lat":45.4478,"lng":6.97986,"address":"Le Front de Neige","website":"https://www.alpy.com/fr/location-ski/parameters/2181?referer=skiquality.com"},{"id":"2180","name":"Ski Republic Centre Station Portillo","lat":45.452599,"lng":6.97389,"address":"Immeuble le Portillo, Avenue Olympique","website":"https://www.alpy.com/fr/location-ski/parameters/2180?referer=skiquality.com"},{"id":"2179","name":"Ski Republic Centre Station  Rond Point des Pistes","lat":45.44521,"lng":6.97716,"address":"Rond Point des Pistes","website":"https://www.alpy.com/fr/location-ski/parameters/2179?referer=skiquality.com"},{"id":"2506","name":"Precision Ski La Poudreuse","lat":45.449566,"lng":6.977076,"address":"Rue du Parc des Sports","website":"https://www.alpy.com/fr/location-ski/parameters/2506?referer=skiquality.com"},{"id":"389","name":"Iseran Sports","lat":45.446964,"lng":6.986606,"address":"Résidence Avenue du Prariond","website":"https://www.alpy.com/fr/location-ski/parameters/389?referer=skiquality.com"},{"id":"2160","name":"Freeride Val d'Isère","lat":45.44828,"lng":6.98043,"address":"Immeuble Val Village C, Rue de la Poste","website":"https://www.alpy.com/fr/location-ski/parameters/2160?referer=skiquality.com"},{"id":"388","name":"Eskiador Val d'Isère","lat":45.452847,"lng":6.973773,"address":"389 Avenue Olympique – Résidence le Portillo","website":"https://www.alpy.com/fr/location-ski/parameters/388?referer=skiquality.com"},{"id":"2631","name":"Boraso Sport Contact","lat":45.459995,"lng":6.964077,"address":"Route Des Etroits - La Daille","website":"https://www.alpy.com/fr/location-ski/parameters/2631?referer=skiquality.com"},{"id":"390","name":"Boraso Sport","lat":45.448025,"lng":6.979373,"address":"Place des Dolmites","website":"https://www.alpy.com/fr/location-ski/parameters/390?referer=skiquality.com"}]},"val-thorens":{"name":"Val Thorens ","center":[45.297521,6.581331],"zoom":13,"shops":[{"id":"1866","name":"Val Loc 2400","lat":45.300053,"lng":6.579405,"address":"Résidence Val 2400 - Les Balcons","website":"https://www.alpy.com/fr/location-ski/parameters/1866?referer=skiquality.com"},{"id":"394","name":"Top Sports","lat":45.297924,"lng":6.580254,"address":"Centre Commercial de Caron","website":"https://www.alpy.com/fr/location-ski/parameters/394?referer=skiquality.com"},{"id":"2189","name":"Ski Republic Peclet","lat":45.296768,"lng":6.58527,"address":"Place Peclet","website":"https://www.alpy.com/fr/location-ski/parameters/2189?referer=skiquality.com"},{"id":"2498","name":"Ski Republic Chamois Sport","lat":45.296631,"lng":6.58126,"address":"Résidence Le Chamois d'Or, Rue du Soleil","website":"https://www.alpy.com/fr/location-ski/parameters/2498?referer=skiquality.com"},{"id":"2294","name":"SALOMON Corner-The North Face Val Thorens","lat":45.298,"lng":6.580929,"address":"101 rue Caron, Galerie Caron, lot 20","website":"https://www.alpy.com/fr/location-ski/parameters/2294?referer=skiquality.com"},{"id":"392","name":"Eskiador Val Thorens","lat":45.296902,"lng":6.576864,"address":"599 Rue  Du Soleil","website":"https://www.alpy.com/fr/location-ski/parameters/392?referer=skiquality.com"},{"id":"2297","name":"Chalet des Neiges Skishop","lat":45.297092,"lng":6.586167,"address":"Résidence chalet des neiges - Rue de Gebroulaz","website":"https://www.alpy.com/fr/location-ski/parameters/2297?referer=skiquality.com"},{"id":"2296","name":"Black Ski Soleil Maverick","lat":45.296791,"lng":6.578515,"address":"Immeuble Montana Soleil, rue du Soleil","website":"https://www.alpy.com/fr/location-ski/parameters/2296?referer=skiquality.com"},{"id":"393","name":"AUDACIUS SHOP","lat":45.297527,"lng":6.583314,"address":"Galerie Commerciale de l'Hotel \"le Val Thorens","website":"https://www.alpy.com/fr/location-ski/parameters/393?referer=skiquality.com"}]},"valfrejus":{"name":"Valfrejus","center":[45.172855,6.651837],"zoom":13,"shops":[{"id":"4073","name":"Ski Republic Centre Station Terra Modana Sport","lat":45.17255,"lng":6.651422,"address":"Pied des pistes 660 - Rue des Bettets - Résidence du Thabor","website":"https://www.alpy.com/fr/location-ski/parameters/4073?referer=skiquality.com"},{"id":"4189","name":"Clic and ski Valféjus","lat":45.173161,"lng":6.652252,"address":"590 rue des Bettets","website":"https://www.alpy.com/fr/location-ski/parameters/4189?referer=skiquality.com"}]},"valloire":{"name":"Valloire","center":[45.161111,6.427527],"zoom":13,"shops":[{"id":"4209","name":"Snow and Ski Village","lat":45.165668,"lng":6.42845,"address":"Résidence l'étoile des neiges - Route des grandes alpes","website":"https://www.alpy.com/fr/location-ski/parameters/4209?referer=skiquality.com"},{"id":"1727","name":"Snow And Ski","lat":45.165188,"lng":6.432134,"address":"Route du télégraphe - Zone des Charbonnières","website":"https://www.alpy.com/fr/location-ski/parameters/1727?referer=skiquality.com"},{"id":"2342","name":"Precision Ski Centre Station Magnin Sports","lat":45.165852,"lng":6.427262,"address":"Rue des Grandes Alpes","website":"https://www.alpy.com/fr/location-ski/parameters/2342?referer=skiquality.com"},{"id":"1728","name":"Nagano Sport","lat":45.1451,"lng":6.419627,"address":"2306 Route Les Verneys","website":"https://www.alpy.com/fr/location-ski/parameters/1728?referer=skiquality.com"},{"id":"397","name":"Martin Sports","lat":45.163746,"lng":6.430163,"address":"rue de Tig Immeuble Crêt de Peré","website":"https://www.alpy.com/fr/location-ski/parameters/397?referer=skiquality.com"}]},"valmeinier":{"name":"Valmeinier","center":[45.17749,6.490196],"zoom":13,"shops":[{"id":"400","name":"Snow Flex","lat":45.174278,"lng":6.493456,"address":"60 Chemin des Petites Anglaises","website":"https://www.alpy.com/fr/location-ski/parameters/400?referer=skiquality.com"},{"id":"2300","name":"Precision Ski Front De Neige Jackie Sports 1800","lat":45.174332,"lng":6.493667,"address":"Immeuble Le Chalet","website":"https://www.alpy.com/fr/location-ski/parameters/2300?referer=skiquality.com"},{"id":"399","name":"Jacky Sports 1500","lat":45.187,"lng":6.480062,"address":"Immeuble Plan du Bois","website":"https://www.alpy.com/fr/location-ski/parameters/399?referer=skiquality.com"},{"id":"2343","name":"Ski Republic Front De Neige Valmeinier Sport 1800","lat":45.174351,"lng":6.4936,"address":"Balcon des Islettes, Valmeinier 1800","website":"https://www.alpy.com/fr/location-ski/parameters/2343?referer=skiquality.com"}]},"valmorel":{"name":"Valmorel","center":[45.461555,6.442695],"zoom":13,"shops":[{"id":"4749","name":"Wocan Delivery - Valmorel","lat":45.46166,"lng":6.44198,"address":"Hotel-Shop-Shuttle-Service","website":"https://www.alpy.com/fr/location-ski/parameters/4749?referer=skiquality.com"},{"id":"3636","name":"Precision Ski Ski Xperience","lat":45.461624,"lng":6.444014,"address":"21-27 Bourg Morel","website":"https://www.alpy.com/fr/location-ski/parameters/3636?referer=skiquality.com"},{"id":"401","name":"Deguili Sports","lat":45.46138,"lng":6.442092,"address":"Rue du Bourg, Bourg Morel n°1","website":"https://www.alpy.com/fr/location-ski/parameters/401?referer=skiquality.com"}]},"vaujany":{"name":"Vaujany","center":[45.158163,6.079409],"zoom":13,"shops":[{"id":"4322","name":"Ekosport-rent Ride For Life","lat":45.158371,"lng":6.07911,"address":"Place du téléphérique","website":"https://www.alpy.com/fr/location-ski/parameters/4322?referer=skiquality.com"},{"id":"285","name":"Atou Sport","lat":45.157955,"lng":6.079708,"address":"474 route du col du sabot","website":"https://www.alpy.com/fr/location-ski/parameters/285?referer=skiquality.com"}]},"villard-de-lans---correncon":{"name":"Villard-de-Lans - Corrençon","center":[45.050378,5.545787],"zoom":13,"shops":[{"id":"288","name":"Sport Vercors","lat":45.069782,"lng":5.549852,"address":"38 Place des Martyrs - Centre Village","website":"https://www.alpy.com/fr/location-ski/parameters/288?referer=skiquality.com"},{"id":"4937","name":"Ski Republic Les Glovettes Sport Evalsion","lat":45.05178,"lng":5.56302,"address":"Galerie Commerciale Les Glovettes, Travée 9","website":"https://www.alpy.com/fr/location-ski/parameters/4937?referer=skiquality.com"},{"id":"272","name":"Guillet Sport","lat":45.029572,"lng":5.524488,"address":"296 Route du Clos de la Balme","website":"https://www.alpy.com/fr/location-ski/parameters/272?referer=skiquality.com"}]}}}